$GPGGA,120218.00,4226.056934,N,08353.645743,W,1,06,1.2,272.82,M,-34.08,M,,*59
$GPGLL,4226.056934,N,08353.645743,W,120218.00,A,A*76
$GPVTG,59.5,T,,,000.04,N,000.08,K,A*75
$GPGSV,3,1,09,03,09,054,38,08,67,294,38,11,44,135,40,17,15,229,37*73
$GPGSV,3,2,09,19,46,051,,26,11,323,,27,71,195,46,28,43,293,41*75
$GPGSV,3,3,09,29,15,315,,,,,,,,,,,,,*48
$GPGSA,A,3,27,03,08,11,17,28,,,,,,,1.9,1.2,1.4*3E
$GPRMC,120218,V,4226.056934,N,08353.645743,W,000.04,59.5,180206,5.5,W,N*0E
$GPGRS,120218.00,1,0.4,1.0,-2.6,-1.1,-0.2,0.3,,,,,,*6B
$GPGST,120218.00,,,,,,,*71
$GPGGA,120219.00,4226.056875,N,08353.645633,W,1,06,1.2,272.69,M,-34.08,M,,*5F
$GPGLL,4226.056875,N,08353.645633,W,120219.00,A,A*75
$GPVTG,109.5,T,,,000.03,N,000.06,K,A*48
$GPGSV,3,1,09,03,09,054,38,08,67,294,38,11,44,135,40,17,15,229,37*73
$GPGSV,3,2,09,19,46,051,,26,11,323,,27,71,195,46,28,43,293,41*75
$GPGSV,3,3,09,29,15,315,,,,,,,,,,,,,*48
$GPGSA,A,3,27,03,08,11,17,28,,,,,,,1.9,1.2,1.4*3E
$GPRMC,120219,V,4226.056875,N,08353.645633,W,000.03,109.5,180206,5.5,W,N*3E
$GPGRS,120219.00,1,0.5,0.9,-2.5,-1.1,-0.3,0.5,,,,,,*67
$GPGST,120219.00,,,,,,,*70
$GPGGA,120220.00,4226.056860,N,08353.645602,W,1,06,1.2,272.64,M,-34.08,M,,*5E
$GPGLL,4226.056860,N,08353.645602,W,120220.00,A,A*79
$GPVTG,295.2,T,,,000.04,N,000.08,K,A*40
$GPGSV,3,1,09,03,09,054,38,08,67,294,38,11,44,135,41,17,15,229,37*72
$GPGSV,3,2,09,19,46,051,,26,11,323,,27,71,195,46,28,43,293,41*75
$GPGSV,3,3,09,29,15,315,,,,,,,,,,,,,*48
$GPGSA,A,3,27,03,08,11,17,28,,,,,,,1.9,1.2,1.4*3E
$GPRMC,120220,V,4226.056860,N,08353.645602,W,000.04,295.2,180206,5.5,W,N*34
$GPGRS,120220.00,1,0.6,0.9,-2.4,-1.2,-0.3,0.6,,,,,,*6F
$GPGST,120220.00,,,,,,,*7A
$GPGGA,120221.00,4226.056853,N,08353.645580,W,1,06,1.2,272.64,M,-34.08,M,,*56
$GPGLL,4226.056853,N,08353.645580,W,120221.00,A,A*71
$GPVTG,84.2,T,,,000.02,N,000.04,K,A*78
$GPGSV,3,1,09,03,09,054,38,08,67,294,38,11,44,135,40,17,15,229,37*73
$GPGSV,3,2,09,19,46,051,,26,11,323,,27,71,195,46,28,43,293,42*76
$GPGSV,3,3,09,29,15,315,,,,,,,,,,,,,*48
$GPGSA,A,3,27,03,08,11,17,28,,,,,,,1.9,1.2,1.4*3E
$GPRMC,120221,V,4226.056853,N,08353.645580,W,000.02,84.2,180206,5.5,W,N*08
$GPGRS,120221.00,1,0.6,0.9,-2.5,-1.2,-0.3,0.6,,,,,,*6F
$GPGST,120221.00,,,,,,,*7B
$GPGGA,120222.00,4226.056850,N,08353.645564,W,1,06,1.2,272.64,M,-34.08,M,,*5C
$GPGLL,4226.056850,N,08353.645564,W,120222.00,A,A*7B
$GPVTG,205.2,T,,,000.04,N,000.07,K,A*46
$GPGSV,3,1,09,03,09,054,38,08,67,294,38,11,44,134,40,17,15,229,37*72
$GPGSV,3,2,09,19,46,051,,26,11,323,,27,71,195,46,28,43,293,42*76
$GPGSV,3,3,09,29,15,315,,,,,,,,,,,,,*48
$GPGSA,A,3,27,03,08,11,17,28,,,,,,,1.9,1.2,1.4*3E
$GPRMC,120222,V,4226.056850,N,08353.645564,W,000.04,205.2,180206,5.5,W,N*3F
$GPGRS,120222.00,1,0.6,0.9,-2.4,-1.2,-0.3,0.7,,,,,,*6C
$GPGST,120222.00,,,,,,,*78
$GPGGA,120223.00,4226.056842,N,08353.645551,W,1,06,1.2,272.64,M,-34.08,M,,*58
$GPGLL,4226.056842,N,08353.645551,W,120223.00,A,A*7F
$GPVTG,202.4,T,,,000.05,N,000.09,K,A*48
$GPGSV,3,1,09,03,09,054,38,08,67,294,38,11,44,134,40,17,15,229,37*72
$GPGSV,3,2,09,19,46,051,,26,11,323,,27,71,195,46,28,43,293,42*76
$GPGSV,3,3,09,29,15,315,,,,,,,,,,,,,*48
$GPGSA,A,3,27,03,08,11,17,28,,,,,,,1.9,1.2,1.4*3E
$GPRMC,120223,V,4226.056842,N,08353.645551,W,000.05,202.4,180206,5.5,W,N*3B
$GPGRS,120223.00,1,0.6,0.9,-2.4,-1.3,-0.3,0.7,,,,,,*6C
$GPGST,120223.00,,,,,,,*79
$GPGGA,120224.00,4226.056864,N,08353.645579,W,1,06,1.2,272.69,M,-34.08,M,,*5C
$GPGLL,4226.056864,N,08353.645579,W,120224.00,A,A*76
$GPVTG,200.2,T,,,000.04,N,000.07,K,A*43
$GPGSV,3,1,09,03,09,054,38,08,67,294,39,11,44,134,41,17,15,229,37*72
$GPGSV,3,2,09,19,46,051,,26,11,323,,27,71,195,46,28,43,293,42*76
$GPGSV,3,3,09,29,15,315,,,,,,,,,,,,,*48
$GPGSA,A,3,11,27,03,08,17,28,,,,,,,1.9,1.2,1.4*3E
$GPRMC,120224,V,4226.056864,N,08353.645579,W,000.04,200.2,180206,5.5,W,N*37
$GPGRS,120224.00,1,-0.6,0.8,1.4,-2.5,-0.1,0.3,,,,,,*6A
$GPGST,120224.00,,,,,,,*7E
$GPGGA,120225.00,4226.056975,N,08353.645654,W,1,06,1.2,272.87,M,-34.08,M,,*50
$GPGLL,4226.056975,N,08353.645654,W,120225.00,A,A*7A
$GPVTG,336.4,T,,,000.04,N,000.07,K,A*41
$GPGSV,3,1,09,03,09,054,38,08,67,294,38,11,44,134,41,17,15,229,38*7C
$GPGSV,3,2,09,19,46,051,,26,11,323,,27,71,195,46,28,43,293,42*76
$GPGSV,3,3,09,29,15,315,,,,,,,,,,,,,*48
$GPGSA,A,3,11,27,03,08,17,28,,,,,,,1.9,1.2,1.4*3E
$GPRMC,120225,V,4226.056975,N,08353.645654,W,000.04,336.4,180206,5.5,W,N*39
$GPGRS,120225.00,1,-0.6,0.8,1.4,-2.5,-0.1,0.2,,,,,,*6A
$GPGST,120225.00,,,,,,,*7F
$GPGGA,120226.00,4226.057057,N,08353.645690,W,1,06,1.2,273.00,M,-34.08,M,,*5D
$GPGLL,4226.057057,N,08353.645690,W,120226.00,A,A*79
$GPVTG,338.4,T,,,000.09,N,000.17,K,A*43
$GPGSV,3,1,09,03,09,054,38,08,67,294,38,11,44,134,41,17,15,229,38*7C
$GPGSV,3,2,09,19,46,051,,26,11,323,,27,71,195,46,28,43,293,42*76
$GPGSV,3,3,09,29,15,315,,,,,,,,,,,,,*48
$GPGSA,A,3,11,27,03,08,17,28,,,,,,,1.9,1.2,1.4*3E
$GPRMC,120226,V,4226.057057,N,08353.645690,W,000.09,338.4,180206,5.5,W,N*39
$GPGRS,120226.00,1,-0.6,0.8,1.4,-2.5,-0.1,0.3,,,,,,*68
$GPGST,120226.00,,,,,,,*7C
$GPGGA,120227.00,4226.057111,N,08353.645705,W,1,06,1.2,273.12,M,-34.08,M,,*51
$GPGLL,4226.057111,N,08353.645705,W,120227.00,A,A*76
$GPVTG,347.7,T,,,000.02,N,000.03,K,A*46
$GPGSV,3,1,09,03,09,054,38,08,67,294,38,11,44,134,41,17,15,229,39*7D
$GPGSV,3,2,09,19,46,051,,26,11,323,,27,71,195,45,28,43,293,41*76
$GPGSV,3,3,09,29,15,315,,,,,,,,,,,,,*48
$GPGSA,A,3,11,27,03,08,17,28,,,,,,,1.9,1.2,1.4*3E
$GPRMC,120227,V,4226.057111,N,08353.645705,W,000.02,347.7,180206,5.5,W,N*36
$GPGRS,120227.00,1,-0.6,0.8,1.5,-2.4,-0.1,0.2,,,,,,*68
$GPGST,120227.00,,,,,,,*7D
$GPGGA,120228.00,4226.057157,N,08353.645708,W,1,06,1.2,273.20,M,-34.08,M,,*50
$GPGLL,4226.057157,N,08353.645708,W,120228.00,A,A*76
$GPVTG,339.8,T,,,000.06,N,000.11,K,A*47
$GPGSV,3,1,09,03,09,054,38,08,67,294,38,11,44,134,41,17,15,229,39*7D
$GPGSV,3,2,09,19,46,051,,26,11,323,,27,71,195,46,28,43,293,42*76
$GPGSV,3,3,09,29,15,315,,,,,,,,,,,,,*48
$GPGSA,A,3,11,27,03,08,17,28,,,,,,,1.9,1.2,1.4*3E
$GPRMC,120228,V,4226.057157,N,08353.645708,W,000.06,339.8,180206,5.5,W,N*34
$GPGRS,120228.00,1,-0.6,0.8,1.5,-2.4,-0.1,0.2,,,,,,*67
$GPGST,120228.00,,,,,,,*72
$GPGGA,120229.00,4226.057187,N,08353.645700,W,1,06,1.2,273.25,M,-34.08,M,,*51
$GPGLL,4226.057187,N,08353.645700,W,120229.00,A,A*72
$GPVTG,193.2,T,,,000.05,N,000.09,K,A*45
$GPGSV,3,1,09,03,09,054,38,08,67,294,38,11,44,134,41,17,15,229,39*7D
$GPGSV,3,2,09,19,46,051,,26,11,323,,27,71,195,45,28,43,293,41*76
$GPGSV,3,3,09,29,15,315,,,,,,,,,,,,,*48
$GPGSA,A,3,11,27,03,08,17,28,,,,,,,1.9,1.2,1.4*3E
$GPRMC,120229,V,4226.057187,N,08353.645700,W,000.05,193.2,180206,5.5,W,N*3B
$GPGRS,120229.00,1,-0.6,0.9,1.5,-2.4,-0.1,0.2,,,,,,*67
$GPGST,120229.00,,,,,,,*73
$GPGGA,120230.00,4226.057210,N,08353.645684,W,1,06,1.2,273.31,M,-34.08,M,,*5C
$GPGLL,4226.057210,N,08353.645684,W,120230.00,A,A*7A
$GPVTG,342.1,T,,,000.05,N,000.09,K,A*48
$GPGSV,3,1,09,03,09,054,37,08,67,294,38,11,44,134,41,17,15,229,39*72
$GPGSV,3,2,09,19,46,051,,26,11,323,,27,71,195,45,28,43,293,42*75
$GPGSV,3,3,09,29,15,315,,,,,,,,,,,,,*48
$GPGSA,A,3,11,27,03,08,17,28,,,,,,,1.9,1.2,1.4*3E
$GPZDA,120230.16,18,02,2006,00,00*6C
$GPRMC,120230,V,4226.057210,N,08353.645684,W,000.05,342.1,180206,5.5,W,N*3E
$GPGRS,120230.00,1,-0.6,0.8,1.5,-2.4,0.0,0.1,,,,,,*41
$GPGST,120230.00,,,,,,,*7B
$PTNL,GGK,120230.00,021806,4226.0572101,N,08353.6456841,W,1,06,1.9,EHT239.229,M*6C
$PFUGDP,6/,M3Y3GY@M%,933%@YZ-3M,8,YHGZG@%9Z%H,:,Y%,M,O,,,,*58
$GPGGA,120231.00,4226.057230,N,08353.645676,W,1,06,1.2,273.35,M,-34.08,M,,*56
$GPGLL,4226.057230,N,08353.645676,W,120231.00,A,A*74
$GPVTG,207.0,T,,,000.07,N,000.13,K,A*40
$GPGSV,3,1,09,03,09,054,38,08,67,294,38,11,44,134,42,17,15,229,39*7E
$GPGSV,3,2,09,19,46,051,,26,11,323,,27,71,194,45,28,43,293,42*74
$GPGSV,3,3,09,29,15,314,,,,,,,,,,,,,*49
$GPGSA,A,3,11,27,03,08,17,28,,,,,,,1.9,1.2,1.4*3E
$GPZDA,120231.15,18,02,2006,00,00*6E
$GPRMC,120231,V,4226.057230,N,08353.645676,W,000.07,207.0,180206,5.5,W,N*33
$GPGRS,120231.00,1,-0.6,0.8,1.5,-2.4,0.0,0.1,,,,,,*40
$GPGST,120231.00,,,,,,,*7A
$PTNL,GGK,120231.00,021806,4226.0572303,N,08353.6456758,W,1,06,1.9,EHT239.273,M*65
$PFUGDP,6/,M3Y3GM@MZ,933%@YZ-3G,8,YHGZG@%9Z%H,:,Y%,M,O,,,,*58
$GPGGA,120232.00,4226.057244,N,08353.645664,W,1,06,1.2,273.37,M,-34.08,M,,*57
$GPGLL,4226.057244,N,08353.645664,W,120232.00,A,A*77
$GPVTG,53.2,T,,,000.03,N,000.06,K,A*71
$GPGSV,3,1,09,03,09,054,37,08,67,294,38,11,44,134,42,17,15,229,39*71
$GPGSV,3,2,09,19,46,051,,26,11,323,,27,71,194,45,28,43,293,42*74
$GPGSV,3,3,09,29,15,314,,,,,,,,,,,,,*49
$GPGSA,A,3,11,27,03,08,17,28,,,,,,,1.9,1.2,1.4*3E
$GPZDA,120232.15,18,02,2006,00,00*6D
$GPRMC,120232,V,4226.057244,N,08353.645664,W,000.03,53.2,180206,5.5,W,N*05
$GPGRS,120232.00,1,-0.6,0.9,1.5,-2.3,0.0,0.1,,,,,,*45
$GPGST,120232.00,,,,,,,*79
$PTNL,GGK,120232.00,021806,4226.0572440,N,08353.6456639,W,1,06,1.9,EHT239.290,M*6D
$PFUGDP,6/,M3Y3G3@MZ,933%@YZ-39,8,YHGZG@%9Z%%,:,Y%,M,O,,,,*52
$GPGGA,120233.00,4226.057259,N,08353.645642,W,1,06,1.2,273.36,M,-34.08,M,,*5F
$GPGLL,4226.057259,N,08353.645642,W,120233.00,A,A*7E
$GPVTG,19.1,T,,,000.04,N,000.07,K,A*7A
$GPGSV,3,1,09,03,09,054,37,08,67,294,38,11,44,134,42,17,15,229,39*71
$GPGSV,3,2,09,19,46,051,,26,11,323,,27,71,194,46,28,43,293,42*77
$GPGSV,3,3,09,29,15,314,,,,,,,,,,,,,*49
$GPGSA,A,3,11,27,03,08,17,28,,,,,,,1.9,1.2,1.4*3E
$GPZDA,120233.15,18,02,2006,00,00*6C
$GPRMC,120233,V,4226.057259,N,08353.645642,W,000.04,19.1,180206,5.5,W,N*06
$GPGRS,120233.00,1,-0.6,0.9,1.5,-2.3,0.0,0.1,,,,,,*44
$GPGST,120233.00,,,,,,,*78
$PTNL,GGK,120233.00,021806,4226.0572595,N,08353.6456425,W,1,06,1.9,EHT239.284,M*6F
$PFUGDP,6/,M3Y3GG@MZ,933%@YZ-3%,8,YHGZG@%9Z%9,:,Y%,M,O,,,,*53
$GPGGA,120234.00,4226.057268,N,08353.645629,W,1,06,1.2,273.37,M,-34.08,M,,*56
$GPGLL,4226.057268,N,08353.645629,W,120234.00,A,A*76
$GPVTG,328.9,T,,,000.08,N,000.14,K,A*4D
$GPGSV,3,1,09,03,09,054,37,08,67,294,37,11,44,134,42,17,15,229,39*7E
$GPGSV,3,2,09,19,46,051,,26,11,323,,27,71,194,46,28,43,293,42*77
$GPGSV,3,3,09,29,15,314,,,,,,,,,,,,,*49
$GPGSA,A,3,11,27,03,08,17,28,,,,,,,1.9,1.2,1.4*3E
$GPZDA,120234.14,18,02,2006,00,00*6A
$GPRMC,120234,V,4226.057268,N,08353.645629,W,000.08,328.9,180206,5.5,W,N*3B
$GPGRS,120234.00,1,-0.7,0.8,1.5,-2.3,0.0,0.0,,,,,,*42
$GPGST,120234.00,,,,,,,*7F
$PTNL,GGK,120234.00,021806,4226.0572682,N,08353.6456291,W,1,06,1.9,EHT239.289,M*69
$PFUGDP,6/,M3Y3G9@M9,933%@YZ-3-,8,YHGZG@%9Z%G,:,Y%,M,O,,,,*53
$GPGGA,120235.00,4226.057277,N,08353.645627,W,1,06,1.2,273.37,M,-34.08,M,,*57
$GPGLL,4226.057277,N,08353.645627,W,120235.00,A,A*77
$GPVTG,193.4,T,,,000.04,N,000.07,K,A*4C
$GPGSV,3,1,09,03,09,054,37,08,67,294,37,11,44,134,42,17,15,229,38*7F
$GPGSV,3,2,09,19,46,051,,26,11,323,,27,71,194,46,28,43,293,43*76
$GPGSV,3,3,09,29,15,314,,,,,,,,,,,,,*49
$GPGSA,A,3,11,27,03,08,17,28,,,,,,,1.9,1.2,1.4*3E
$GPZDA,120235.14,18,02,2006,00,00*6B
$GPRMC,120235,V,4226.057277,N,08353.645627,W,000.04,193.4,180206,5.5,W,N*39
$GPGRS,120235.00,1,-0.6,0.9,1.5,-2.3,0.0,0.0,,,,,,*43
$GPGST,120235.00,,,,,,,*7E
$PTNL,GGK,120235.00,021806,4226.0572769,N,08353.6456275,W,1,06,1.9,EHT239.289,M*66
$PFUGDP,6/,M3Y3GZ@M9,933%@YZ-3H,8,YHGZG@%9Z%G,:,Y%,M,O,,,,*5D
$GPGGA,120236.00,4226.056919,N,08353.645069,W,2,06,1.2,272.73,M,-34.08,M,3.2,0117*70
$GPGLL,4226.056919,N,08353.645069,W,120236.00,A,D*7F
$GPVTG,183.8,T,,,000.02,N,000.04,K,D*41
$GPGSV,3,1,09,03,09,054,37,08,67,294,37,11,44,134,42,17,15,229,39*7E
$GPGSV,3,2,09,19,46,051,,26,11,323,,27,71,194,46,28,43,293,43*76
$GPGSV,3,3,09,29,15,314,,,,,,,,,,,,,*49
$GPGSA,A,3,03,08,11,17,27,28,,,,,,,1.9,1.2,1.4*3E
$GPZDA,120236.17,18,02,2006,00,00*6B
$GPRMC,120236,A,4226.056919,N,08353.645069,W,000.02,183.8,180206,5.5,W,D*22
$GPGRS,120236.00,1,0.3,-0.5,-0.1,-1.1,0.4,0.3,,,,,,*67
$GPGST,120236.00,,,,,,,*7D
$PTNL,GGK,120236.00,021806,4226.0569192,N,08353.6450685,W,4,06,1.9,EHT238.655,M*61
$PFUGDP,6/,M3Y3G%@M-,933%@YZ% 3,8,YHGZG@%9ZY-,:,Y%,H,R,,,,*53
$GPGGA,120237.00,4226.056701,N,08353.644699,W,2,06,1.2,272.35,M,-34.08,M,3.0,0117*7E
$GPGLL,4226.056701,N,08353.644699,W,120237.00,A,D*71
$GPVTG,70.7,T,,,000.04,N,000.07,K,D*76
$GPGSV,3,1,09,03,09,054,37,08,67,294,37,11,44,134,42,17,16,229,39*7D
$GPGSV,3,2,09,19,46,051,,26,11,323,,27,71,194,46,28,43,293,43*76
$GPGSV,3,3,09,29,15,314,,,,,,,,,,,,,*49
$GPGSA,A,3,03,08,11,17,27,28,,,,,,,1.9,1.2,1.4*3E
$GPZDA,120237.15,18,02,2006,00,00*68
$GPRMC,120237,A,4226.056701,N,08353.644699,W,000.04,70.7,180206,5.5,W,D*18
$GPGRS,120237.00,1,0.4,-0.4,-0.1,-1.0,0.3,0.3,,,,,,*66
$GPGST,120237.00,,,,,,,*7C
$PTNL,GGK,120237.00,021806,4226.0567009,N,08353.6446992,W,4,06,1.9,EHT238.276,M*66
$PFUGDP,6/,M3Y3G-@MZ,933%@YZ%-Y,8,YHGZG@%99-Y,:,Y%,H,R,,,,*5D
$GPGGA,120238.00,4226.056572,N,08353.644466,W,2,06,1.2,272.13,M,-34.08,M,3.4,0117*75
$GPGLL,4226.056572,N,08353.644466,W,120238.00,A,D*7A
$GPVTG,241.2,T,,,000.05,N,000.09,K,D*4C
$GPGSV,3,1,09,03,09,054,37,08,67,294,37,11,44,134,43,17,16,229,39*7C
$GPGSV,3,2,09,19,46,051,,26,11,323,,27,71,194,46,28,43,293,43*76
$GPGSV,3,3,09,29,15,314,,,,,,,,,,,,,*49
$GPGSA,A,3,03,08,11,17,27,28,,,,,,,1.9,1.2,1.4*3E
$GPZDA,120238.15,18,02,2006,00,00*67
$GPRMC,120238,A,4226.056572,N,08353.644466,W,000.05,241.2,180206,5.5,W,D*27
$GPGRS,120238.00,1,0.3,-0.4,-0.1,-1.0,0.3,0.3,,,,,,*6E
$GPGST,120238.00,,,,,,,*73
$PTNL,GGK,120238.00,021806,4226.0565723,N,08353.6444659,W,4,06,1.9,EHT238.048,M*61
$PFUGDP,6/,M3Y3GH@MZ,933%@YZ%Z-,8,YHGZG@%999-,:,Y%,H,R,,,,*53
$GPGGA,120239.00,4226.056495,N,08353.644316,W,2,06,1.2,271.99,M,-34.08,M,3.2,0117*7B
$GPGLL,4226.056495,N,08353.644316,W,120239.00,A,D*73
$GPVTG,260.2,T,,,000.07,N,000.14,K,D*41
$GPGSV,3,1,09,03,09,054,36,08,67,293,37,11,44,134,42,17,16,229,40*75
$GPGSV,3,2,09,19,46,051,,26,11,323,,27,71,194,46,28,43,293,43*76
$GPGSV,3,3,09,29,15,314,,,,,,,,,,,,,*49
$GPGSA,A,3,03,08,11,17,27,28,,,,,,,1.9,1.2,1.4*3E
$GPZDA,120239.15,18,02,2006,00,00*66
$GPRMC,120239,A,4226.056495,N,08353.644316,W,000.07,260.2,180206,5.5,W,D*2F
$GPGRS,120239.00,1,0.3,-0.4,-0.1,-0.9,0.3,0.3,,,,,,*67
$GPGST,120239.00,,,,,,,*72
$PTNL,GGK,120239.00,021806,4226.0564953,N,08353.6443163,W,4,06,1.9,EHT237.908,M*63
$PFUGDP,6/,M3Y3G @MZ,933%@YZ%ZY,8,YHGZG@%99G3,:,Y%,H,R,,,,*57
$GPGGA,120240.00,4226.056433,N,08353.644215,W,2,06,1.2,271.90,M,-34.08,M,3.0,0117*70
$GPGLL,4226.056433,N,08353.644215,W,120240.00,A,D*73
$GPVTG,190.1,T,,,000.02,N,000.05,K,D*4B
$GPGSV,3,1,09,03,09,054,36,08,67,293,37,11,44,134,42,17,16,229,40*75
$GPGSV,3,2,09,19,46,051,,26,11,323,,27,71,194,46,28,43,293,43*76
$GPGSV,3,3,09,29,15,314,,,,,,,,,,,,,*49
$GPGSA,A,3,03,08,11,17,27,28,,,,,,,1.9,1.2,1.4*3E
$GPZDA,120240.14,18,02,2006,00,00*69
$GPRMC,120240,A,4226.056433,N,08353.644215,W,000.02,190.1,180206,5.5,W,D*25
$GPGRS,120240.00,1,0.4,-0.4,-0.1,-0.9,0.3,0.3,,,,,,*6E
$GPGST,120240.00,,,,,,,*7C
$PTNL,GGK,120240.00,021806,4226.0564326,N,08353.6442145,W,4,06,1.9,EHT237.817,M*6F
$PFUGDP,6/,M3Y39Y@M9,933%@YZ%9G,8,YHGZG@%993M,:,Y%,H,R,,,,*58
$GPGGA,120241.00,4226.056405,N,08353.644166,W,2,06,1.2,271.83,M,-34.08,M,3.4,0117*75
$GPGLL,4226.056405,N,08353.644166,W,120241.00,A,D*70
$GPVTG,354.9,T,,,000.07,N,000.13,K,D*4B
$GPGSV,3,1,09,03,09,054,35,08,67,293,37,11,44,134,43,17,16,229,40*77
$GPGSV,3,2,09,19,46,051,,26,11,323,,27,71,194,46,28,43,293,42*77
$GPGSV,3,3,09,29,15,314,,,,,,,,,,,,,*49
$GPGSA,A,3,03,08,11,17,27,28,,,,,,,1.9,1.2,1.4*3E
$GPZDA,120241.24,18,02,2006,00,00*6B
$GPRMC,120241,A,4226.056405,N,08353.644166,W,000.07,354.9,180206,5.5,W,D*21
$GPGRS,120241.00,1,0.4,-0.4,-0.1,-1.0,0.3,0.2,,,,,,*66
$GPGST,120241.00,,,,,,,*7D
$PTNL,GGK,120241.00,021806,4226.0564049,N,08353.6441662,W,4,06,1.9,EHT237.754,M*6D
$PFUGDP,6/,M3Y39M@39,933%@YZ%9Y,8,YHGZG@%99M-,:,Y%,H,R,,,,*5C
$GPGGA,120242.00,4226.056404,N,08353.644118,W,2,06,1.2,271.79,M,-34.08,M,2.0,0117*7E
$GPGLL,4226.056404,N,08353.644118,W,120242.00,A,D*7B
$GPVTG,81.9,T,,,000.04,N,000.07,K,D*76
$GPGSV,3,1,09,03,09,054,35,08,67,293,37,11,44,134,43,17,16,229,40*77
$GPGSV,3,2,09,19,46,051,,26,11,323,,27,71,194,46,28,43,293,43*76
$GPGSV,3,3,09,29,15,314,,,,,,,,,,,,,*49
$GPGSA,A,3,03,08,11,17,27,28,,,,,,,1.9,1.2,1.4*3E
$GPZDA,120242.76,18,02,2006,00,00*6F
$GPRMC,120242,A,4226.056404,N,08353.644118,W,000.04,81.9,180206,5.5,W,D*12
$GPGRS,120242.00,1,0.4,-0.4,-0.1,-0.9,0.3,0.2,,,,,,*6D
$GPGST,120242.00,,,,,,,*7E
$PTNL,GGK,120242.00,021806,4226.0564039,N,08353.6441181,W,4,06,1.9,EHT237.712,M*61
$PFUGDP,6/,M3Y393@-%,933%@YZ%9Y,8,YHGZG@%99M3,:,Y%,H,R,,,,*5D
$GPGGA,120243.00,4226.056395,N,08353.644087,W,2,06,1.2,271.75,M,-34.08,M,2.4,0117*7F
$GPGLL,4226.056395,N,08353.644087,W,120243.00,A,D*72
$GPVTG,27.3,T,,,000.04,N,000.07,K,D*70
$GPGSV,3,1,09,03,09,054,35,08,67,293,37,11,44,134,43,17,16,229,40*77
$GPGSV,3,2,09,19,46,051,,26,11,323,,27,71,194,46,28,43,293,42*77
$GPGSV,3,3,09,29,15,314,,,,,,,,,,,,,*49
$GPGSA,A,3,03,08,11,17,27,28,,,,,,,1.9,1.2,1.4*3E
$GPZDA,120244.36,18,02,2006,00,00*6D
$GPRMC,120243,A,4226.056395,N,08353.644087,W,000.04,27.3,180206,5.5,W,D*1D
$GPGRS,120243.00,1,0.4,-0.4,-0.1,-0.9,0.3,0.2,,,,,,*6C
$GPGST,120243.00,,,,,,,*7F
$PTNL,GGK,120243.00,021806,4226.0563949,N,08353.6440865,W,4,06,1.9,EHT237.674,M*6A
$PFUGDP,6/,M3Y399@G%,933%@YZ%G ,8,YHGZG@%99Y ,:,Y%,H,R,,,,*5B
$GPGGA,120244.00,4226.056382,N,08353.644061,W,2,06,1.2,271.73,M,-34.08,M,1.0,0117*77
$GPGLL,4226.056382,N,08353.644061,W,120244.00,A,D*7B
$GPVTG,187.3,T,,,000.12,N,000.22,K,D*4B
$GPGSV,3,1,09,03,09,054,35,08,67,293,37,11,44,134,43,17,16,229,41*76
$GPGSV,3,2,09,19,46,051,,26,11,323,,27,71,194,46,28,43,293,43*76
$GPGSV,3,3,09,29,15,314,,,,,,,,,,,,,*49
$GPGSA,A,3,03,08,11,17,27,28,,,,,,,1.9,1.2,1.4*3E
$GPZDA,120245.93,18,02,2006,00,00*63
$GPRMC,120244,A,4226.056382,N,08353.644061,W,000.12,187.3,180206,5.5,W,D*28
$GPGRS,120244.00,1,0.4,-0.4,-0.1,-0.9,0.3,0.3,,,,,,*6A
$GPGST,120244.00,,,,,,,*78
$PTNL,GGK,120244.00,021806,4226.0563817,N,08353.6440606,W,4,06,1.9,EHT237.650,M*6A
$PFUGDP,6/,M3Y39Z@ G,933%@YZ%GH,8,YHGZG@%99Y%,:,Y%,H,R,,,,*5B
$GPGGA,120245.00,4226.056369,N,08353.644044,W,2,06,1.2,271.72,M,-34.08,M,0.8,0117*7C
$GPGLL,4226.056369,N,08353.644044,W,120245.00,A,D*78
$GPVTG,182.9,T,,,000.11,N,000.20,K,D*45
$GPGSV,3,1,09,03,09,054,35,08,67,293,37,11,44,134,43,17,16,229,40*77
$GPGSV,3,2,09,19,46,051,,26,11,323,,27,71,194,46,28,43,293,43*76
$GPGSV,3,3,09,29,15,314,,,,,,,,,,,,,*49
$GPGSA,A,3,03,08,11,17,27,28,,,,,,,1.9,1.2,1.4*3E
$GPZDA,120247.53,18,02,2006,00,00*6D
$GPRMC,120245,A,4226.056369,N,08353.644044,W,000.11,182.9,180206,5.5,W,D*27
$GPGRS,120245.00,1,0.3,-0.4,-0.1,-0.9,0.3,0.3,,,,,,*6C
$GPGST,120245.00,,,,,,,*79
$PTNL,GGK,120245.00,021806,4226.0563687,N,08353.6440444,W,4,06,1.9,EHT237.643,M*6A
$PFUGDP,6/,M3Y39-@ZG,933%@YZ%G-,8,YHGZG@%99Y9,:,Y%,H,R,,,,*58
$PTNLID,069,10,003.00,08/18/05,,,*00
$GPGGA,120247.00,4226.056369,N,08353.644034,W,2,06,1.2,271.69,M,-34.08,M,1.0,0117*7A
$GPGLL,4226.056369,N,08353.644034,W,120247.00,A,D*7D
$GPVTG,330.4,T,,,000.06,N,000.11,K,D*47
$GPGSV,3,1,09,03,09,054,36,08,67,293,37,11,44,134,43,17,16,229,40*74
$GPGSV,3,2,09,19,46,051,,26,11,323,,27,71,194,46,28,43,293,43*76
$GPGSV,3,3,09,29,15,314,,,,,,,,,,,,,*49
$GPGSA,A,3,03,08,11,17,27,28,,,,,,,1.9,1.2,1.4*3E
$GPZDA,120249.20,18,02,2006,00,00*67
$GPRMC,120247,A,4226.056369,N,08353.644034,W,000.06,330.4,180206,5.5,W,D*22
$GPGRS,120247.00,1,0.4,-0.4,-0.1,-0.9,0.3,0.3,,,,,,*69
$GPGST,120247.00,,,,,,,*7B
$PTNL,GGK,120247.00,021806,4226.0563689,N,08353.6440342,W,4,06,1.9,EHT237.612,M*63
$PFUGDP,6/,M3Y39 @3Y,933%@YZ%G-,8,YHGZG@%99YG,:,Y%,H,R,,,,*55
$GPGGA,120248.00,4226.056373,N,08353.644033,W,2,06,1.2,271.72,M,-34.08,M,0.8,0117*7A
$GPGLL,4226.056373,N,08353.644033,W,120248.00,A,D*7E
$GPVTG,250.7,T,,,000.07,N,000.12,K,D*41
$GPGSV,3,1,09,03,09,054,36,08,67,293,38,11,44,134,43,17,16,229,40*7B
$GPGSV,3,2,09,19,46,051,,26,11,323,,27,71,194,47,28,43,293,43*77
$GPGSV,3,3,09,29,15,314,,,,,,,,,,,,,*49
$GPGSA,A,3,03,08,11,17,27,28,,,,,,,1.9,1.2,1.4*3E
$GPZDA,120250.74,18,02,2006,00,00*6E
$GPRMC,120248,A,4226.056373,N,08353.644033,W,000.07,250.7,180206,5.5,W,D*24
$GPGRS,120248.00,1,0.3,-0.4,-0.1,-0.9,0.3,0.3,,,,,,*61
$GPGST,120248.00,,,,,,,*74
$PTNL,GGK,120248.00,021806,4226.0563729,N,08353.6440327,W,4,06,1.9,EHT237.642,M*61
$PFUGDP,6/,M3Y3ZY@-9,933%@YZ%G-,8,YHGZG@%99YG,:,Y%,H,R,,,,*5C
$GPGGA,120250.00,4226.056377,N,08353.644025,W,2,06,1.2,271.75,M,-34.08,M,1.0,0117*7E
$GPGLL,4226.056377,N,08353.644025,W,120250.00,A,D*74
$GPVTG,194.1,T,,,000.12,N,000.22,K,D*4B
$GPGSV,3,1,09,03,09,054,35,08,67,293,38,11,44,134,43,17,16,229,40*78
$GPGSV,3,2,09,19,46,051,,26,11,323,,27,71,194,47,28,43,293,43*77
$GPGSV,3,3,09,29,15,314,,,,,,,,,,,,,*49
$GPGSA,A,3,03,08,11,17,27,28,,,,,,,1.9,1.2,1.4*3E
$GPZDA,120252.36,18,02,2006,00,00*6A
$GPRMC,120250,A,4226.056377,N,08353.644025,W,000.12,194.1,180206,5.5,W,D*27
$GPGRS,120250.00,1,0.3,-0.3,-0.1,-0.7,0.3,0.2,,,,,,*60
$GPGST,120250.00,,,,,,,*7D
$PTNL,GGK,120250.00,021806,4226.0563773,N,08353.6440252,W,4,06,1.9,EHT237.669,M*6D
$PFUGDP,6/,M3Y3Z3@G%,933%@YZ%GH,8,YHGZG@%99YG,:,Y%,H,R,,,,*57
$GPGGA,120251.00,4226.056413,N,08353.643993,W,2,06,1.2,271.84,M,-34.08,M,0.8,0117*7E
$GPGLL,4226.056413,N,08353.643993,W,120251.00,A,D*73
$GPVTG,355.6,T,,,000.10,N,000.19,K,D*49
$GPGSV,3,1,09,03,09,054,35,08,67,293,38,11,44,134,43,17,16,229,40*78
$GPGSV,3,2,09,19,46,051,,26,11,323,,27,71,194,46,28,43,293,43*76
$GPGSV,3,3,09,29,15,314,,,,,,,,,,,,,*49
$GPGSA,A,3,03,08,11,17,27,28,,,,,,,1.9,1.2,1.4*3E
$GPZDA,120253.89,18,02,2006,00,00*6F
$GPRMC,120251,A,4226.056413,N,08353.643993,W,000.10,355.6,180206,5.5,W,D*2A
$GPGRS,120251.00,1,0.3,-0.3,-0.1,-0.7,0.3,0.2,,,,,,*61
$GPGST,120251.00,,,,,,,*7C
$GPMSS,60.5,17.9,319.0,200,1*5C
$GPMSS,43.0,15.4,301.0,100,2*5E
$PTNLDG,60.5,17.9,319.0,200,0,4,1,0,,,*37
$PTNLDG,43.0,15.4,301.0,100,1,4,0,0,,,*36
$PTNL,GGK,120251.00,021806,4226.0564128,N,08353.6439926,W,4,06,1.9,EHT237.760,M*6D
$GPXTE,,,,,N*3C
$PTNLTL,A,,D,INCL,,A,,D,BANK,*10
$GPXDR,A,,D,INCL,A,,D,BANK*57
$PFUGDP,6/,M3Y3ZG@H ,933%@YZ%9M,8,YHGZG@%9G  ,:,Y%,H,R,,,,*58
$GPGGA,120253.00,4226.056455,N,08353.643969,W,2,06,1.2,271.90,M,-34.08,M,0.4,0117*72
$GPGLL,4226.056455,N,08353.643969,W,120253.00,A,D*76
$GPVTG,229.1,T,,,000.13,N,000.23,K,D*4E
$GPGSV,3,1,09,03,09,054,34,08,67,293,37,11,44,134,43,17,16,229,40*76
$GPGSV,3,2,09,19,46,051,,26,11,323,,27,71,194,46,28,43,293,43*76
$GPGSV,3,3,09,29,15,314,,,,,,,,,,,,,*49
$GPGSA,A,3,03,08,11,17,27,28,,,,,,,1.9,1.2,1.4*3E
$GPZDA,120255.96,18,02,2006,00,00*67
$GPRMC,120253,A,4226.056455,N,08353.643969,W,000.13,229.1,180206,5.5,W,D*21
$GPGRS,120253.00,1,0.3,-0.3,-0.1,-0.6,0.2,0.2,,,,,,*63
$GPGST,120253.00,,,,,,,*7E
$GPMSS,60.5,17.9,319.0,200,1*5C
$GPMSS,42.5,15.2,301.0,100,2*5C
$PTNLDG,60.5,17.8,319.0,200,0,4,1,0,,,*36
$PTNLDG,42.5,15.0,301.0,100,1,4,0,0,,,*36
$PTNL,GGK,120253.00,021806,4226.0564549,N,08353.6439689,W,4,06,1.9,EHT237.821,M*6C
$GPXTE,,,,,N*3C
$PTNLTL,A,,D,INCL,,A,,D,BANK,*10
$GPXDR,A,,D,INCL,A,,D,BANK*57
$PFUGDP,6/,M3Y3ZZ@ %,933%@YZ%9Z,8,YHGZG@%9G -,:,Y%,H,R,,,,*5A
$GPGGA,120255.00,4226.056419,N,08353.643986,W,2,05,2.7,272.04,M,-34.08,M,0.0,0117*72
$GPGLL,4226.056419,N,08353.643986,W,120255.00,A,D*79
$GPVTG,199.3,T,,,000.06,N,000.11,K,D*41
$GPGSV,3,1,09,03,09,054,34,08,67,293,37,11,44,134,43,17,16,229,40*76
$GPGSV,3,2,09,19,46,051,,26,11,323,,27,71,194,46,28,43,293,43*76
$GPGSV,3,3,09,29,15,314,,,,,,,,,,,,,*49
$GPGSA,A,3,08,11,17,27,28,,,,,,,,4.3,2.7,3.3*31
$GPZDA,120258.10,18,02,2006,00,00*64
$GPRMC,120255,A,4226.056419,N,08353.643986,W,000.06,199.3,180206,5.5,W,D*20
$GPGRS,120255.00,1,-0.2,0.0,-0.7,0.1,0.2,,,,,,,*67
$GPGST,120255.00,,,,,,,*78
$GPMSS,60.5,17.8,319.0,200,1*5D
$GPMSS,42.5,15.4,301.0,100,2*5A
$PTNLDG,60.5,17.8,319.0,200,0,4,1,0,,,*36
$PTNLDG,42.5,15.3,301.0,100,1,4,0,0,,,*35
$PTNL,GGK,120255.00,021806,4226.0564194,N,08353.6439860,W,4,05,4.3,EHT237.959,M*65
$GPXTE,,,,,N*3C
$PTNLTL,A,,D,INCL,,A,,D,BANK,*10
$GPXDR,A,,D,INCL,A,,D,BANK*57
$PFUGDP,6/,M3Y3ZH@MY,933%@YZ%93,8,YHGZG@%9G  ,:,YZ,H,R,,,,*53
$GPGGA,120257.00,4226.056360,N,08353.644017,W,2,05,2.7,272.15,M,-34.08,M,0.2,0117*7D
$GPGLL,4226.056360,N,08353.644017,W,120257.00,A,D*74
$GPVTG,191.1,T,,,000.14,N,000.25,K,D*4F
$GPGSV,3,1,09,03,09,054,35,08,67,293,38,11,44,134,43,17,16,229,40*78
$GPGSV,3,2,09,19,46,051,,26,11,323,,27,71,194,46,28,43,293,43*76
$GPGSV,3,3,09,29,15,314,,,,,,,,,,,,,*49
$GPGSA,A,3,08,11,17,27,28,,,,,,,,4.3,2.7,3.3*31
$GPZDA,120300.14,18,02,2006,00,00*6C
$GPRMC,120257,A,4226.056360,N,08353.644017,W,000.14,191.1,180206,5.5,W,D*24
$GPGRS,120257.00,1,-0.3,0.0,-0.7,0.1,0.2,,,,,,,*64
$GPGST,120257.00,,,,,,,*7A
$GPMSS,61.0,17.8,319.0,200,1*59
$GPMSS,42.0,15.3,301.0,100,2*58
$PTNLDG,61.0,17.8,319.0,200,0,4,1,0,,,*32
$PTNLDG,42.0,15.3,301.0,100,1,4,0,0,,,*30
$PTNL,GGK,120257.00,021806,4226.0563605,N,08353.6440167,W,4,05,4.3,EHT238.067,M*64
$GPXTE,,,,,N*3C
$PTNLTL,A,,D,INCL,,A,,D,BANK,*10
$GPXDR,A,,D,INCL,A,,D,BANK*57
$PFUGDP,6/,M3YGYY@M9,933%@YZ%G%,8,YHGZG@%99Y3,:,YZ,H,R,,,,*5D
$GPGGA,120300.00,4226.056344,N,08353.643989,W,2,05,2.7,272.21,M,-34.08,M,1.4,0117*71
$GPGLL,4226.056344,N,08353.643989,W,120300.00,A,D*78
$GPVTG,68.2,T,,,000.07,N,000.13,K,D*7C
$GPGSV,3,1,09,03,09,054,35,08,67,293,39,11,44,134,44,17,16,229,40*7E
$GPGSV,3,2,09,19,46,051,,26,11,323,,27,71,194,47,28,43,293,44*70
$GPGSV,3,3,09,29,15,314,,,,,,,,,,,,,*49
$GPGSA,A,3,08,11,17,27,28,,,,,,,,4.3,2.7,3.3*31
$GPZDA,120302.24,18,02,2006,00,00*6D
$GPRMC,120300,A,4226.056344,N,08353.643989,W,000.07,68.2,180206,5.5,W,D*1E
$GPGRS,120300.00,1,-0.2,0.0,-0.7,0.1,0.2,,,,,,,*66
$GPGST,120300.00,,,,,,,*79
$GPMSS,61.0,17.7,319.0,200,1*56
$GPMSS,41.5,14.8,301.0,100,2*54
$PTNLDG,60.5,17.7,319.0,200,0,4,1,0,,,*39
$PTNLDG,42.0,14.8,301.0,100,1,4,0,0,,,*3A
$PTNL,GGK,120300.00,021806,4226.0563437,N,08353.6439890,W,4,05,4.3,EHT238.130,M*68
$GPXTE,,,,,N*3C
$PTNLTL,A,,D,INCL,,A,,D,BANK,*10
$GPXDR,A,,D,INCL,A,,D,BANK*57
$PFUGDP,6/,M3YGY3@39,933%@YZ%G9,8,YHGZG@%9G  ,:,YZ,H,R,,,,*5B
$GPGGA,120302.00,4226.056333,N,08353.643990,W,2,05,2.7,272.33,M,-34.08,M,1.0,0117*7C
$GPGLL,4226.056333,N,08353.643990,W,120302.00,A,D*72
$GPVTG,247.4,T,,,000.13,N,000.24,K,D*44
$GPGSV,3,1,09,03,09,054,33,08,67,293,39,11,44,134,44,17,16,229,40*78
$GPGSV,3,2,09,19,46,051,,26,11,323,,27,71,194,47,28,43,293,44*70
$GPGSV,3,3,09,29,15,314,,,,,,,,,,,,,*49
$GPGSA,A,3,08,11,17,27,28,,,,,,,,4.3,2.7,3.3*31
$GPZDA,120304.26,18,02,2006,00,00*69
$GPRMC,120302,A,4226.056333,N,08353.643990,W,000.13,247.4,180206,5.5,W,D*28
$GPGRS,120302.00,1,-0.3,0.0,-0.7,0.1,0.2,,,,,,,*65
$GPGST,120302.00,,,,,,,*7B
$GPMSS,60.5,17.7,319.0,200,1*52
$GPMSS,42.0,14.1,301.0,100,2*5B
$PTNLDG,61.0,17.7,319.0,200,0,4,1,0,,,*3D
$PTNLDG,41.5,14.3,301.0,100,1,4,0,0,,,*37
$PTNL,GGK,120302.00,021806,4226.0563331,N,08353.6439897,W,4,05,4.3,EHT238.253,M*6A
$GPXTE,,,,,N*3C
$PTNLTL,A,,D,INCL,,A,,D,BANK,*10
$GPXDR,A,,D,INCL,A,,D,BANK*57
$PFUGDP,6/,M3YGY9@3%,933%@YZ%GG,8,YHGZG@%9G  ,:,YZ,H,R,,,,*58
$GPGGA,120304.00,4226.056332,N,08353.644021,W,2,05,2.7,272.41,M,-34.08,M,0.6,0117*7D
$GPGLL,4226.056332,N,08353.644021,W,120304.00,A,D*71
$GPVTG,237.6,T,,,000.11,N,000.21,K,D*46
$GPGSV,3,1,09,03,09,054,34,08,67,293,37,11,44,134,43,17,16,229,40*76
$GPGSV,3,2,09,19,46,051,,26,11,323,,27,71,194,47,28,43,293,44*70
$GPGSV,3,3,09,29,15,314,,,,,,,,,,,,,*49
$GPGSA,A,3,08,11,17,27,28,,,,,,,,4.3,2.7,3.3*31
$GPZDA,120306.26,18,02,2006,00,00*6B
$GPRMC,120304,A,4226.056332,N,08353.644021,W,000.11,237.6,180206,5.5,W,D*2C
$GPGRS,120304.00,1,-0.3,0.0,-0.8,0.2,0.2,,,,,,,*6F
$GPGST,120304.00,,,,,,,*7D
$GPMSS,60.5,17.7,319.0,200,1*52
$GPMSS,41.5,13.9,301.0,100,2*52
$PTNLDG,60.5,17.7,319.0,200,0,4,1,0,,,*39
$PTNLDG,41.5,14.1,301.0,100,1,4,0,0,,,*35
$PTNL,GGK,120304.00,021806,4226.0563316,N,08353.6440212,W,4,05,4.3,EHT238.333,M*67
$GPXTE,,,,,N*3C
$PTNLTL,A,,D,INCL,,A,,D,BANK,*10
$GPXDR,A,,D,INCL,A,,D,BANK*57
$PFUGDP,6/,M3YGY%@3%,933%@YZ%GG,8,YHGZG@%99Y3,:,YZ,H,R,,,,*5F
$GPGGA,120306.00,4226.056337,N,08353.644038,W,2,05,2.7,272.42,M,-34.08,M,0.8,0117*7F
$GPGLL,4226.056337,N,08353.644038,W,120306.00,A,D*7E
$GPVTG,272.3,T,,,000.06,N,000.11,K,D*47
$GPGSV,3,1,09,03,09,054,34,08,67,293,38,11,44,134,43,17,16,229,41*78
$GPGSV,3,2,09,19,46,051,,26,11,323,,27,71,194,47,28,43,293,44*70
$GPGSV,3,3,09,29,15,314,,,,,,,,,,,,,*49
$GPGSA,A,3,08,11,17,27,28,,,,,,,,4.3,2.7,3.3*31
$GPZDA,120308.26,18,02,2006,00,00*65
$GPRMC,120306,A,4226.056337,N,08353.644038,W,000.06,272.3,180206,5.5,W,D*21
$GPGRS,120306.00,1,-0.2,0.0,-0.7,0.1,0.2,,,,,,,*60
$GPGST,120306.00,,,,,,,*7F
$GPMSS,60.5,17.8,319.0,200,1*5D
$GPMSS,41.0,14.7,301.0,100,2*5E
$PTNLDG,60.5,17.8,319.0,200,0,4,1,0,,,*36
$PTNLDG,41.0,14.7,301.0,100,1,4,0,0,,,*36
$PTNL,GGK,120306.00,021806,4226.0563367,N,08353.6440380,W,4,05,4.3,EHT238.344,M*69
$GPXTE,,,,,N*3C
$PTNLTL,A,,D,INCL,,A,,D,BANK,*10
$GPXDR,A,,D,INCL,A,,D,BANK*57
$PFUGDP,6/,M3YGYH@3%,933%@YZ%G9,8,YHGZG@%99Y9,:,YZ,H,R,,,,*50
$GPGGA,120308.00,4226.056334,N,08353.644035,W,2,05,2.7,272.46,M,-34.08,M,1.0,0117*72
$GPGLL,4226.056334,N,08353.644035,W,120308.00,A,D*7E
$GPVTG,208.8,T,,,000.15,N,000.27,K,D*46
$GPGSV,3,1,09,03,09,054,33,08,67,293,38,11,44,134,43,17,16,229,41*7F
$GPGSV,3,2,09,19,46,051,,26,11,323,,27,71,194,46,28,43,293,44*71
$GPGSV,3,3,09,29,15,314,,,,,,,,,,,,,*49
$GPGSA,A,3,08,11,17,27,28,,,,,,,,4.3,2.7,3.3*31
$GPZDA,120310.30,18,02,2006,00,00*6B
$GPRMC,120308,A,4226.056334,N,08353.644035,W,000.15,208.8,180206,5.5,W,D*25
$GPGRS,120308.00,1,-0.2,0.0,-0.6,0.1,0.2,,,,,,,*6F
$GPGST,120308.00,,,,,,,*71
$GPMSS,61.0,17.9,319.0,200,1*58
$GPMSS,41.0,13.5,301.0,100,2*5B
$PTNLDG,61.0,17.9,319.0,200,0,4,1,0,,,*33
$PTNLDG,41.0,13.5,301.0,100,1,4,0,0,,,*33
$PTNL,GGK,120308.00,021806,4226.0563335,N,08353.6440347,W,4,05,4.3,EHT238.378,M*64
$GPXTE,,,,,N*3C
$PTNLTL,A,,D,INCL,,A,,D,BANK,*10
$GPXDR,A,,D,INCL,A,,D,BANK*57
$PFUGDP,6/,M3YGMY@GY,933%@YZ%GG,8,YHGZG@%99YG,:,YZ,H,R,,,,*5E
$GPGGA,120310.00,4226.056322,N,08353.644035,W,2,05,2.7,272.52,M,-34.08,M,0.6,0117*7E
$GPGLL,4226.056322,N,08353.644035,W,120310.00,A,D*70
$GPVTG,156.0,T,,,000.06,N,000.11,K,D*41
$GPGSV,3,1,09,03,09,054,33,08,67,293,37,11,44,134,44,17,16,229,41*77
$GPGSV,3,2,09,19,46,051,,26,11,323,,27,71,194,45,28,43,293,44*72
$GPGSV,3,3,09,29,15,314,,,,,,,,,,,,,*49
$GPGSA,A,3,08,11,17,27,28,,,,,,,,4.2,2.7,3.3*30
$GPZDA,120312.36,18,02,2006,00,00*6F
$GPRMC,120310,A,4226.056322,N,08353.644035,W,000.06,156.0,180206,5.5,W,D*29
$GPGRS,120310.00,1,-0.2,0.0,-0.6,0.1,0.2,,,,,,,*66
$GPGST,120310.00,,,,,,,*78
$GPMSS,61.0,17.8,319.0,200,1*59
$GPMSS,41.5,14.2,301.0,100,2*5E
$PTNLDG,61.0,17.9,319.0,200,0,4,1,0,,,*33
$PTNLDG,42.0,14.3,301.0,100,1,4,0,0,,,*31
$PTNL,GGK,120310.00,021806,4226.0563219,N,08353.6440351,W,4,05,4.2,EHT238.440,M*68
$GPXTE,,,,,N*3C
$PTNLTL,A,,D,INCL,,A,,D,BANK,*10
$GPXDR,A,,D,INCL,A,,D,BANK*57
$PFUGDP,6/,M3YGM3@G%,933%@YZ%G3,8,YHGZG@%99Y9,:,YZ,H,R,,,,*5C
$GPGGA,120312.00,4226.056345,N,08353.644008,W,2,05,2.7,272.59,M,-34.08,M,0.8,0117*76
$GPGLL,4226.056345,N,08353.644008,W,120312.00,A,D*7D
$GPVTG,39.7,T,,,000.10,N,000.18,K,D*70
$GPGSV,3,1,09,03,09,054,33,08,67,293,37,11,44,134,44,17,16,229,40*76
$GPGSV,3,2,09,19,46,051,,26,11,323,,27,71,194,46,28,43,293,44*71
$GPGSV,3,3,09,29,15,314,,,,,,,,,,,,,*49
$GPGSA,A,3,08,11,17,27,28,,,,,,,,4.2,2.7,3.3*30
$GPZDA,120314.42,18,02,2006,00,00*6A
$GPRMC,120312,A,4226.056345,N,08353.644008,W,000.10,39.7,180206,5.5,W,D*1C
$GPGRS,120312.00,1,-0.2,0.0,-0.6,0.1,0.2,,,,,,,*64
$GPGST,120312.00,,,,,,,*7A
$GPMSS,61.5,17.7,319.0,200,1*53
$GPMSS,42.5,14.5,301.0,100,2*5A
$PTNLDG,61.0,17.7,319.0,200,0,4,1,0,,,*3D
$PTNLDG,42.0,14.4,301.0,100,1,4,0,0,,,*36
$PTNL,GGK,120312.00,021806,4226.0563451,N,08353.6440084,W,4,05,4.2,EHT238.509,M*67
$GPXTE,,,,,N*3C
$PTNLTL,A,,D,INCL,,A,,D,BANK,*10
$GPXDR,A,,D,INCL,A,,D,BANK*57
$PFUGDP,6/,M3YGM9@93,933%@YZ%GZ,8,YHGZG@%99YM,:,YZ,H,R,,,,*5B
$GPGGA,120314.00,4226.056347,N,08353.644013,W,2,05,2.7,272.67,M,-34.08,M,0.4,0117*79
$GPGLL,4226.056347,N,08353.644013,W,120314.00,A,D*73
$GPVTG,222.8,T,,,000.08,N,000.15,K,D*43
$GPGSV,3,1,09,03,09,054,34,08,67,293,37,11,44,134,44,17,16,229,41*70
$GPGSV,3,2,09,19,46,051,,26,11,323,,27,71,194,45,28,43,293,43*75
$GPGSV,3,3,09,29,15,314,,,,,,,,,,,,,*49
$GPGSA,A,3,08,11,17,27,28,,,,,,,,4.2,2.7,3.3*30
$GPZDA,120316.47,18,02,2006,00,00*6D
$GPRMC,120314,A,4226.056347,N,08353.644013,W,000.08,222.8,180206,5.5,W,D*2C
$GPGRS,120314.00,1,-0.2,0.0,-0.6,0.1,0.2,,,,,,,*62
$GPGST,120314.00,,,,,,,*7C
$GPMSS,61.5,17.7,319.0,200,1*53
$GPMSS,42.5,15.0,301.0,100,2*5E
$PTNLDG,61.0,17.7,319.0,200,0,4,1,0,,,*3D
$PTNLDG,43.0,15.0,301.0,100,1,4,0,0,,,*32
$PTNL,GGK,120314.00,021806,4226.0563472,N,08353.6440131,W,4,05,4.2,EHT238.595,M*6A
$GPXTE,,,,,N*3C
$PTNLTL,A,,D,INCL,,A,,D,BANK,*10
$GPXDR,A,,D,INCL,A,,D,BANK*57
$PFUGDP,6/,M3YGM%@9-,933%@YZ%GZ,8,YHGZG@%99YM,:,YZ,H,R,,,,*5C
$PTNLID,069,10,003.00,08/18/05,,,*00
$GPGGA,120316.00,4226.056337,N,08353.644029,W,2,05,2.7,272.78,M,-34.08,M,0.0,0117*7F
$GPGLL,4226.056337,N,08353.644029,W,120316.00,A,D*7F
$GPVTG,151.1,T,,,000.08,N,000.14,K,D*4C
$GPGSV,3,1,09,03,09,054,34,08,67,293,37,11,44,134,44,17,16,229,41*70
$GPGSV,3,2,09,19,46,051,,26,11,323,,27,71,194,45,28,43,293,44*72
$GPGSV,3,3,09,29,15,314,,,,,,,,,,,,,*49
$GPGSA,A,3,08,11,17,27,28,,,,,,,,4.2,2.7,3.3*30
$GPZDA,120318.52,18,02,2006,00,00*67
$GPRMC,120316,A,4226.056337,N,08353.644029,W,000.08,151.1,180206,5.5,W,D*2E
$GPGRS,120316.00,1,-0.2,0.0,-0.6,0.1,0.2,,,,,,,*60
$GPGST,120316.00,,,,,,,*7E
$GPMSS,60.5,17.7,319.0,200,1*52
$GPMSS,43.0,15.3,301.0,100,2*59
$PTNLDG,61.0,17.7,319.0,200,0,4,1,0,,,*3D
$PTNLDG,43.0,15.4,301.0,100,1,4,0,0,,,*36
$PTNL,GGK,120316.00,021806,4226.0563367,N,08353.6440291,W,4,05,4.2,EHT238.700,M*6C
$GPXTE,,,,,N*3C
$PTNLTL,A,,D,INCL,,A,,D,BANK,*10
$GPXDR,A,,D,INCL,A,,D,BANK*57
$PFUGDP,6/,M3YGMH@Z3,933%@YZ%G9,8,YHGZG@%99YG,:,YZ,H,R,,,,*55
$GPGGA,120318.00,4226.056355,N,08353.644000,W,2,05,2.7,272.80,M,-34.08,M,0.2,0117*7B
$GPGLL,4226.056355,N,08353.644000,W,120318.00,A,D*7E
$GPVTG,85.6,T,,,000.03,N,000.06,K,D*7B
$GPGSV,3,1,09,03,09,054,33,08,67,293,37,11,44,134,43,17,16,229,40*71
$GPGSV,3,2,09,19,46,051,,26,11,323,,27,71,194,46,28,43,293,44*71
$GPGSV,3,3,09,29,15,314,,,,,,,,,,,,,*49
$GPGSA,A,3,08,11,17,27,28,,,,,,,,4.2,2.7,3.3*30
$GPZDA,120320.60,18,02,2006,00,00*6D
$GPRMC,120318,A,4226.056355,N,08353.644000,W,000.03,85.6,180206,5.5,W,D*1B
$GPGRS,120318.00,1,-0.2,0.0,-0.6,0.1,0.2,,,,,,,*6E
$GPGST,120318.00,,,,,,,*70
$GPMSS,61.0,17.7,319.0,200,1*56
$GPMSS,43.5,15.9,301.0,100,2*56
$PTNLDG,61.0,17.7,319.0,200,0,4,1,0,,,*3D
$PTNLDG,43.5,15.9,301.0,100,1,4,0,0,,,*3E
$PTNL,GGK,120318.00,021806,4226.0563554,N,08353.6439998,W,4,05,4.2,EHT238.720,M*6A
$GPXTE,,,,,N*3C
$PTNLTL,A,,D,INCL,,A,,D,BANK,*10
$GPXDR,A,,D,INCL,A,,D,BANK*57
$PFUGDP,6/,M3YG3Y@%Y,933%@YZ%G%,8,YHGZG@%99YY,:,YZ,H,R,,,,*5E
$GPGGA,120320.00,4226.056362,N,08353.644008,W,2,05,2.7,272.86,M,-34.08,M,0.4,0117*7C
$GPGLL,4226.056362,N,08353.644008,W,120320.00,A,D*79
$GPVTG,161.3,T,,,000.03,N,000.06,K,D*45
$GPGSV,3,1,09,03,09,054,33,08,67,293,37,11,44,134,44,17,16,229,41*77
$GPGSV,3,2,09,19,46,051,,26,11,323,,27,71,194,46,28,43,293,43*76
$GPGSV,3,3,09,29,15,314,,,,,,,,,,,,,*49
$GPGSA,A,3,08,11,17,27,28,,,,,,,,4.2,2.7,3.3*30
$GPZDA,120322.67,18,02,2006,00,00*68
$GPRMC,120320,A,4226.056362,N,08353.644008,W,000.03,161.3,180206,5.5,W,D*22
$GPGRS,120320.00,1,-0.2,0.0,-0.5,0.1,0.1,,,,,,,*65
$GPGST,120320.00,,,,,,,*7B
$GPMSS,61.5,17.7,319.0,200,1*53
$GPMSS,43.5,16.7,301.0,100,2*5B
$PTNLDG,61.5,17.7,319.0,200,0,4,1,0,,,*38
$PTNLDG,43.5,16.7,301.0,100,1,4,0,0,,,*33
$PTNL,GGK,120320.00,021806,4226.0563622,N,08353.6440081,W,4,05,4.2,EHT238.778,M*61
$GPXTE,,,,,N*3C
$PTNLTL,A,,D,INCL,,A,,D,BANK,*10
$GPXDR,A,,D,INCL,A,,D,BANK*57
$PFUGDP,6/,M3YG33@%-,933%@YZ%G%,8,YHGZG@%99YM,:,YZ,H,R,,,,*5A
$GPGGA,120322.00,4226.056349,N,08353.644026,W,2,05,2.7,272.87,M,-34.08,M,0.0,0117*7E
$GPGLL,4226.056349,N,08353.644026,W,120322.00,A,D*7E
$GPVTG,214.2,T,,,000.09,N,000.17,K,D*4F
$GPGSV,3,1,09,03,09,054,32,08,68,293,37,11,44,134,44,17,16,229,41*79
$GPGSV,3,2,09,19,46,051,,26,11,323,,27,71,194,46,28,43,293,43*76
$GPGSV,3,3,09,29,15,314,,,,,,,,,,,,,*49
$GPGSA,A,3,08,11,17,27,28,,,,,,,,4.2,2.7,3.3*30
$GPZDA,120324.71,18,02,2006,00,00*69
$GPRMC,120322,A,4226.056349,N,08353.644026,W,000.09,214.2,180206,5.5,W,D*2F
$GPGRS,120322.00,1,-0.2,0.0,-0.5,0.1,0.1,,,,,,,*67
$GPGST,120322.00,,,,,,,*79
$GPMSS,61.5,17.9,319.0,200,1*5D
$GPMSS,44.5,16.7,301.0,100,2*5C
$PTNLDG,61.5,17.9,319.0,200,0,4,1,0,,,*36
$PTNLDG,44.5,16.6,301.0,100,1,4,0,0,,,*35
$PTNL,GGK,120322.00,021806,4226.0563486,N,08353.6440259,W,4,05,4.2,EHT238.787,M*68
$GPXTE,,,,,N*3C
$PTNLTL,A,,D,INCL,,A,,D,BANK,*10
$GPXDR,A,,D,INCL,A,,D,BANK*57
$PFUGDP,6/,M3YG39@-M,933%@YZ%GZ,8,YHGZG@%99YG,:,YZ,H,R,,,,*5A
$GPGGA,120324.00,4226.056364,N,08353.644023,W,2,05,2.7,272.90,M,-34.08,M,-0.4,0117*5D
$GPGLL,4226.056364,N,08353.644023,W,120324.00,A,D*72
$GPVTG,210.7,T,,,000.10,N,000.19,K,D*48
$GPGSV,3,1,09,03,09,054,32,08,68,293,37,11,44,134,44,17,16,229,41*79
$GPGSV,3,2,09,19,46,051,,26,11,323,,27,70,194,46,28,43,293,44*70
$GPGSV,3,3,09,29,15,314,,,,,,,,,,,,,*49
$GPGSA,A,3,08,11,17,27,28,,,,,,,,4.2,2.7,3.3*30
$GPZDA,120326.77,18,02,2006,00,00*6D
$GPRMC,120324,A,4226.056364,N,08353.644023,W,000.10,210.7,180206,5.5,W,D*2A
$GPGRS,120324.00,1,-0.1,0.0,-0.4,0.1,0.1,,,,,,,*63
$GPGST,120324.00,,,,,,,*7F
$GPMSS,61.5,17.8,319.0,200,1*5C
$GPMSS,44.0,16.0,301.0,100,2*5E
$PTNLDG,61.5,17.8,319.0,200,0,4,1,0,,,*37
$PTNLDG,44.0,16.1,301.0,100,1,4,0,0,,,*37
$PTNL,GGK,120324.00,021806,4226.0563637,N,08353.6440235,W,4,05,4.2,EHT238.826,M*68
$GPXTE,,,,,N*3C
$PTNLTL,A,,D,INCL,,A,,D,BANK,*10
$GPXDR,A,,D,INCL,A,,D,BANK*57
$PFUGDP,6/,M3YG3%@--,933%@YZ%G%,8,YHGZG@%99Y3,:,YZ,H,R,,,,*5C
$GPGGA,120326.00,4226.056386,N,08353.644019,W,2,05,2.7,272.95,M,-34.08,M,1.0,0117*77
$GPGLL,4226.056386,N,08353.644019,W,120326.00,A,D*75
$GPVTG,286.7,T,,,000.09,N,000.16,K,D*40
$GPGSV,3,1,09,03,09,054,33,08,68,293,37,11,44,134,43,17,16,229,41*7F
$GPGSV,3,2,09,19,46,051,,26,11,323,,27,70,194,45,28,43,293,43*74
$GPGSV,3,3,09,29,15,314,,,,,,,,,,,,,*49
$GPGSA,A,3,08,11,17,27,28,,,,,,,,4.2,2.7,3.3*30
$GPZDA,120328.79,18,02,2006,00,00*6D
$GPRMC,120326,A,4226.056386,N,08353.644019,W,000.09,286.7,180206,5.5,W,D*2A
$GPGRS,120326.00,1,-0.1,0.0,-0.3,0.1,0.1,,,,,,,*66
$GPGST,120326.00,,,,,,,*7D
$GPMSS,61.5,17.9,319.0,200,1*5D
$GPMSS,44.0,16.4,301.0,100,2*5A
$PTNLDG,61.5,17.8,319.0,200,0,4,1,0,,,*37
$PTNLDG,44.0,16.4,301.0,100,1,4,0,0,,,*32
$PTNL,GGK,120326.00,021806,4226.0563857,N,08353.6440188,W,4,05,4.2,EHT238.873,M*67
$GPXTE,,,,,N*3C
$PTNLTL,A,,D,INCL,,A,,D,BANK,*10
$GPXDR,A,,D,INCL,A,,D,BANK*57
$PFUGDP,6/,M3YG3H@- ,933%@YZ%G ,8,YHGZG@%99Y3,:,YZ,H,R,,,,*53
$GPGGA,120328.00,4226.056387,N,08353.644029,W,2,05,2.7,273.00,M,-34.08,M,0.6,0117*71
$GPGLL,4226.056387,N,08353.644029,W,120328.00,A,D*79
$GPVTG,235.8,T,,,000.10,N,000.18,K,D*41
$GPGSV,3,1,09,03,09,054,32,08,68,293,37,11,44,134,43,17,16,229,42*7D
$GPGSV,3,2,09,19,46,051,,26,11,323,,27,70,194,45,28,43,293,44*73
$GPGSV,3,3,09,29,15,314,,,,,,,,,,,,,*49
$GPGSA,A,3,08,11,17,27,28,,,,,,,,4.2,2.7,3.3*30
$GPZDA,120330.87,18,02,2006,00,00*65
$GPRMC,120328,A,4226.056387,N,08353.644029,W,000.10,235.8,180206,5.5,W,D*29
$GPGRS,120328.00,1,-0.1,0.0,-0.3,0.1,0.1,,,,,,,*68
$GPGST,120328.00,,,,,,,*73
$GPMSS,61.5,18.0,319.0,200,1*5B
$GPMSS,44.5,16.9,301.0,100,2*52
$PTNLDG,61.5,18.0,319.0,200,0,4,1,0,,,*30
$PTNLDG,44.5,16.9,301.0,100,1,4,0,0,,,*3A
$PTNL,GGK,120328.00,021806,4226.0563872,N,08353.6440290,W,4,05,4.2,EHT238.924,M*67
$GPXTE,,,,,N*3C
$PTNLTL,A,,D,INCL,,A,,D,BANK,*10
$GPXDR,A,,D,INCL,A,,D,BANK*57
$PFUGDP,6/,M3YGGY@H-,933%@YZ%G ,8,YHGZG@%99YG,:,YZ,H,R,,,,*5A
$GPGGA,120330.00,4226.056385,N,08353.644020,W,2,05,2.7,273.12,M,-34.08,M,0.8,0117*7E
$GPGLL,4226.056385,N,08353.644020,W,120330.00,A,D*7B
$GPVTG,45.0,T,,,000.13,N,000.24,K,D*70
$GPGSV,3,1,09,03,09,054,29,08,68,293,35,11,44,134,42,17,16,229,41*77
$GPGSV,3,2,09,19,46,051,,26,11,323,,27,70,194,45,28,43,293,43*74
$GPGSV,3,3,09,29,15,314,,,,,,,,,,,,,*49
$GPGSA,A,3,08,11,17,27,28,,,,,,,,4.2,2.7,3.3*30
$GPZDA,120332.92,18,02,2006,00,00*63
$GPRMC,120330,A,4226.056385,N,08353.644020,W,000.13,45.0,180206,5.5,W,D*15
$GPGRS,120330.00,1,-0.1,0.0,-0.3,0.1,0.1,,,,,,,*61
$GPGST,120330.00,,,,,,,*7A
$GPMSS,61.5,18.0,319.0,200,1*5B
$GPMSS,44.5,16.5,301.0,100,2*5E
$PTNLDG,61.5,18.0,319.0,200,0,4,1,0,,,*30
$PTNLDG,44.5,16.5,301.0,100,1,4,0,0,,,*36
$PTNL,GGK,120330.00,021806,4226.0563853,N,08353.6440202,W,4,05,4.2,EHT239.043,M*6F
$GPXTE,,,,,N*3C
$PTNLTL,A,,D,INCL,,A,,D,BANK,*10
$GPXDR,A,,D,INCL,A,,D,BANK*57
$PFUGDP,6/,M3YGG3@ 3,933%@YZ%G ,8,YHGZG@%99Y3,:,YZ,H,R,,,,*5D
$GPGGA,120332.00,4226.056373,N,08353.644017,W,2,05,2.7,273.26,M,-34.08,M,1.0,0117*7F
$GPGLL,4226.056373,N,08353.644017,W,120332.00,A,D*74
$GPVTG,160.4,T,,,000.09,N,000.16,K,D*48
$GPGSV,3,1,09,03,09,054,32,08,68,293,36,11,44,134,41,17,16,229,40*7C
$GPGSV,3,2,09,19,46,051,,26,11,323,,27,70,194,45,28,43,293,43*74
$GPGSV,3,3,09,29,15,314,,,,,,,,,,,,,*49
$GPGSA,A,3,08,11,17,27,28,,,,,,,,4.2,2.7,3.3*30
$GPZDA,120334.96,18,02,2006,00,00*61
$GPRMC,120332,A,4226.056373,N,08353.644017,W,000.09,160.4,180206,5.5,W,D*23
$GPGRS,120332.00,1,-0.1,0.0,-0.3,0.1,0.1,,,,,,,*63
$GPGST,120332.00,,,,,,,*78
$GPMSS,62.0,17.9,319.0,200,1*5B
$GPMSS,44.5,16.9,301.0,100,2*52
$PTNLDG,62.0,17.8,319.0,200,0,4,1,0,,,*31
$PTNLDG,44.5,16.7,301.0,100,1,4,0,0,,,*34
$PTNL,GGK,120332.00,021806,4226.0563733,N,08353.6440172,W,4,05,4.2,EHT239.186,M*68
$GPXTE,,,,,N*3C
$PTNLTL,A,,D,INCL,,A,,D,BANK,*10
$GPXDR,A,,D,INCL,A,,D,BANK*57
$PFUGDP,6/,M3YGG9@ %,933%@YZ%G-,8,YHGZG@%99Y3,:,YZ,H,R,,,,*51
$GPGGA,120334.00,4226.056374,N,08353.644030,W,2,05,2.7,273.29,M,-34.08,M,0.6,0117*73
$GPGLL,4226.056374,N,08353.644030,W,120334.00,A,D*70
$GPVTG,357.0,T,,,000.08,N,000.14,K,D*49
$GPGSV,3,1,09,03,09,054,29,08,68,293,37,11,44,134,42,17,16,229,42*76
$GPGSV,3,2,09,19,46,051,,26,11,323,,27,70,194,46,28,43,293,45*71
$GPGSV,3,3,09,29,15,314,,,,,,,,,,,,,*49
$GPGSA,A,3,08,11,17,27,28,,,,,,,,4.2,2.7,3.3*30
$GPZDA,120337.00,18,02,2006,00,00*6D
$GPRMC,120334,A,4226.056374,N,08353.644030,W,000.08,357.0,180206,5.5,W,D*24
$GPGRS,120334.00,1,-0.1,0.0,-0.4,0.1,0.1,,,,,,,*62
$GPGST,120334.00,,,,,,,*7E
$GPMSS,62.0,17.6,319.0,200,1*54
$GPMSS,44.5,15.9,301.0,100,2*51
$PTNLDG,62.0,17.7,319.0,200,0,4,1,0,,,*3E
$PTNLDG,45.0,16.0,301.0,100,1,4,0,0,,,*37
$PTNL,GGK,120334.00,021806,4226.0563737,N,08353.6440296,W,4,05,4.2,EHT239.211,M*6E
$GPXTE,,,,,N*3C
$PTNLTL,A,,D,INCL,,A,,D,BANK,*10
$GPXDR,A,,D,INCL,A,,D,BANK*57
$PFUGDP,6/,M3YGG-@YY,933%@YZ%G-,8,YHGZG@%99YG,:,YZ,H,R,,,,*5C
$GPGGA,120337.00,4226.056384,N,08353.644046,W,2,05,2.7,273.27,M,-34.08,M,1.2,0117*75
$GPGLL,4226.056384,N,08353.644046,W,120337.00,A,D*7D
$GPVTG,234.5,T,,,000.06,N,000.11,K,D*43
$GPGSV,3,1,09,03,09,054,30,08,68,293,37,11,44,134,43,17,16,229,41*7C
$GPGSV,3,2,09,19,46,051,,26,11,323,,27,70,194,45,28,43,293,45*72
$GPGSV,3,3,09,29,15,314,,,,,,,,,,,,,*49
$GPGSA,A,3,08,11,17,27,28,,,,,,,,4.2,2.7,3.3*30
$GPZDA,120339.16,18,02,2006,00,00*64
$GPRMC,120337,A,4226.056384,N,08353.644046,W,000.06,234.5,180206,5.5,W,D*26
$GPGRS,120337.00,1,-0.1,0.0,-0.3,0.1,0.1,,,,,,,*66
$GPGST,120337.00,,,,,,,*7D
$GPMSS,62.0,17.8,319.0,200,1*5A
$GPMSS,44.5,16.0,301.0,100,2*5B
$PTNLDG,62.0,17.8,319.0,200,0,4,1,0,,,*31
$PTNLDG,44.5,16.0,301.0,100,1,4,0,0,,,*33
$PTNL,GGK,120337.00,021806,4226.0563836,N,08353.6440464,W,4,05,4.2,EHT239.194,M*66
$GPXTE,,,,,N*3C
$PTNLTL,A,,D,INCL,,A,,D,BANK,*10
$GPXDR,A,,D,INCL,A,,D,BANK*57
$PFUGDP,6/,M3YGG @M%,933%@YZ%GH,8,YHGZG@%99YZ,:,YZ,H,R,,,,*5C
$GPGGA,120339.00,4226.056371,N,08353.644038,W,2,05,2.7,273.23,M,-34.08,M,1.4,0117*7A
$GPGLL,4226.056371,N,08353.644038,W,120339.00,A,D*70
$GPVTG,213.5,T,,,000.12,N,000.23,K,D*42
$GPGSV,3,1,09,03,09,054,30,08,68,293,37,11,44,134,42,17,16,229,41*7D
$GPGSV,3,2,09,19,46,051,,26,11,323,,27,70,194,45,28,44,293,45*75
$GPGSV,3,3,09,29,15,314,,,,,,,,,,,,,*49
$GPGSA,A,3,08,11,17,27,28,,,,,,,,4.2,2.7,3.3*30
$GPZDA,120341.19,18,02,2006,00,00*64
$GPRMC,120339,A,4226.056371,N,08353.644038,W,000.12,213.5,180206,5.5,W,D*2B
$GPGRS,120339.00,1,-0.1,0.0,-0.3,0.1,0.1,,,,,,,*68
$GPGST,120339.00,,,,,,,*73
$GPMSS,61.5,17.6,319.0,200,1*52
$GPMSS,44.5,15.6,301.0,100,2*5E
$PTNLDG,61.5,17.7,319.0,200,0,4,1,0,,,*38
$PTNLDG,44.5,15.7,301.0,100,1,4,0,0,,,*37
$PTNL,GGK,120339.00,021806,4226.0563708,N,08353.6440383,W,4,05,4.2,EHT239.154,M*68
$GPXTE,,,,,N*3C
$PTNLTL,A,,D,INCL,,A,,D,BANK,*10
$GPXDR,A,,D,INCL,A,,D,BANK*57
$PFUGDP,6/,M3YG9M@M ,933%@YZ%G-,8,YHGZG@%99Y9,:,YZ,H,R,,,,*52
$GPGGA,120341.00,4226.056369,N,08353.644010,W,2,05,2.7,273.26,M,-34.08,M,1.0,0117*77
$GPGLL,4226.056369,N,08353.644010,W,120341.00,A,D*7C
$GPVTG,36.6,T,,,000.16,N,000.29,K,D*7A
$GPGSV,3,1,09,03,09,054,30,08,68,293,37,11,44,134,43,17,16,229,41*7C
$GPGSV,3,2,09,19,46,051,,26,11,323,,27,70,194,45,28,44,293,45*75
$GPGSV,3,3,09,29,15,314,,,,,,,,,,,,,*49
$GPGSA,A,3,08,11,17,27,28,,,,,,,,4.2,2.7,3.3*30
$GPZDA,120343.26,18,02,2006,00,00*6A
$GPRMC,120341,A,4226.056369,N,08353.644010,W,000.16,36.6,180206,5.5,W,D*15
$GPGRS,120341.00,1,-0.1,0.0,-0.3,0.1,0.1,,,,,,,*67
$GPGST,120341.00,,,,,,,*7C
$GPMSS,61.5,17.6,319.0,200,1*52
$GPMSS,44.5,15.7,301.0,100,2*5F
$PTNLDG,61.5,17.7,319.0,200,0,4,1,0,,,*38
$PTNLDG,45.0,15.4,301.0,100,1,4,0,0,,,*30
$PTNL,GGK,120341.00,021806,4226.0563688,N,08353.6440095,W,4,05,4.2,EHT239.178,M*64
$GPXTE,,,,,N*3C
$PTNLTL,A,,D,INCL,,A,,D,BANK,*10
$GPXDR,A,,D,INCL,A,,D,BANK*57
$PFUGDP,6/,M3YG9G@3%,933%@YZ%G-,8,YHGZG@%99YM,:,YZ,H,R,,,,*59
$GPGGA,120343.00,4226.056346,N,08353.644014,W,2,05,2.7,273.28,M,-34.08,M,1.2,0117*70
$GPGLL,4226.056346,N,08353.644014,W,120343.00,A,D*77
$GPVTG,225.1,T,,,000.13,N,000.23,K,D*42
$GPGSV,3,1,09,03,09,054,30,08,68,293,36,11,44,134,42,17,16,229,40*7D
$GPGSV,3,2,09,19,46,051,,26,11,323,,27,70,194,44,28,44,293,44*75
$GPGSV,3,3,09,29,15,314,,,,,,,,,,,,,*49
$GPGSA,A,3,08,11,17,27,28,,,,,,,,4.2,2.7,3.3*30
$GPZDA,120345.27,18,02,2006,00,00*6D
$GPRMC,120343,A,4226.056346,N,08353.644014,W,000.13,225.1,180206,5.5,W,D*2C
$GPGRS,120343.00,1,-0.1,0.0,-0.3,0.1,0.1,,,,,,,*65
$GPGST,120343.00,,,,,,,*7E
$GPMSS,62.5,17.6,319.0,200,1*51
$GPMSS,44.5,14.4,301.0,100,2*5D
$PTNLDG,61.5,17.6,319.0,200,0,4,1,0,,,*39
$PTNLDG,45.0,14.6,301.0,100,1,4,0,0,,,*33
$PTNL,GGK,120343.00,021806,4226.0563461,N,08353.6440138,W,4,05,4.2,EHT239.197,M*64
$GPXTE,,,,,N*3C
$PTNLTL,A,,D,INCL,,A,,D,BANK,*10
$GPXDR,A,,D,INCL,A,,D,BANK*57
$PFUGDP,6/,M3YG9Z@3-,933%@YZ%GZ,8,YHGZG@%99YM,:,YZ,H,R,,,,*5C
$GPGGA,120345.00,4226.056325,N,08353.644015,W,2,05,2.7,273.27,M,-34.08,M,1.4,0117*7B
$GPGLL,4226.056325,N,08353.644015,W,120345.00,A,D*75
$GPVTG,68.1,T,,,000.11,N,000.20,K,D*78
$GPGSV,3,1,09,03,09,054,29,08,68,293,35,11,44,134,43,17,16,229,39*79
$GPGSV,3,2,09,19,46,051,,26,11,323,,27,70,194,44,28,44,293,44*75
$GPGSV,3,3,09,29,15,314,,,,,,,,,,,,,*49
$GPGSA,A,3,08,11,17,27,28,,,,,,,,4.2,2.7,3.3*30
$GPZDA,120347.27,18,02,2006,00,00*6F
$GPRMC,120345,A,4226.056325,N,08353.644015,W,000.11,68.1,180206,5.5,W,D*17
$GPGRS,120345.00,1,-0.1,0.0,-0.4,0.1,0.1,,,,,,,*64
$GPGST,120345.00,,,,,,,*78
$GPMSS,62.0,17.6,319.0,200,1*54
$GPMSS,44.5,13.5,301.0,100,2*5B
$PTNLDG,62.0,17.6,319.0,200,0,4,1,0,,,*3F
$PTNLDG,44.5,13.5,301.0,100,1,4,0,0,,,*33
$PTNL,GGK,120345.00,021806,4226.0563253,N,08353.6440153,W,4,05,4.2,EHT239.192,M*6D
$GPXTE,,,,,N*3C
$PTNLTL,A,,D,INCL,,A,,D,BANK,*10
$GPXDR,A,,D,INCL,A,,D,BANK*57
$PFUGDP,6/,M3YG9-@3-,933%@YZ%GG,8,YHGZG@%99Y3,:,YZ,H,R,,,,*5B
$PTNLID,069,10,003.00,08/18/05,,,*00
$GPGGA,120347.00,4226.056316,N,08353.644014,W,2,05,2.7,273.27,M,-34.08,M,1.0,0117*7C
$GPGLL,4226.056316,N,08353.644014,W,120347.00,A,D*76
$GPVTG,28.2,T,,,000.05,N,000.10,K,D*79
$GPGSV,3,1,09,03,09,054,30,08,68,292,35,11,44,134,43,17,16,229,39*70
$GPGSV,3,2,09,19,46,051,,26,11,323,,27,70,194,43,28,44,293,44*72
$GPGSV,3,3,09,29,15,314,,,,,,,,,,,,,*49
$GPGSA,A,3,08,11,17,27,28,,,,,,,,4.2,2.7,3.3*30
$GPZDA,120349.27,18,02,2006,00,00*61
$GPRMC,120347,A,4226.056316,N,08353.644014,W,000.05,28.2,180206,5.5,W,D*16
$GPGRS,120347.00,1,-0.1,0.0,-0.4,0.1,0.1,,,,,,,*66
$GPGST,120347.00,,,,,,,*7A
$GPMSS,61.5,17.6,319.0,200,1*52
$GPMSS,44.5,13.9,301.0,100,2*57
$PTNLDG,62.0,17.7,319.0,200,0,4,1,0,,,*3E
$PTNLDG,44.5,14.1,301.0,100,1,4,0,0,,,*30
$PTNL,GGK,120347.00,021806,4226.0563158,N,08353.6440142,W,4,05,4.2,EHT239.189,M*6D
$GPXTE,,,,,N*3C
$PTNLTL,A,,D,INCL,,A,,D,BANK,*10
$GPXDR,A,,D,INCL,A,,D,BANK*57
$PFUGDP,6/,M3YG9 @3-,933%@YZ%G3,8,YHGZG@%99YM,:,YZ,H,R,,,,*57
$GPGGA,120349.00,4226.056320,N,08353.643997,W,2,05,2.7,273.25,M,-34.08,M,0.6,0117*77
$GPGLL,4226.056320,N,08353.643997,W,120349.00,A,D*78
$GPVTG,82.5,T,,,000.14,N,000.26,K,D*7B
$GPGSV,3,1,09,03,09,054,30,08,68,292,34,11,44,134,43,17,16,229,39*71
$GPGSV,3,2,09,19,46,051,,26,11,323,,27,70,194,44,28,44,293,44*75
$GPGSV,3,3,09,29,15,314,,,,,,,,,,,,,*49
$GPGSA,A,3,08,11,17,27,28,,,,,,,,4.2,2.7,3.3*30
$GPZDA,120351.42,18,02,2006,00,00*6B
$GPRMC,120349,A,4226.056320,N,08353.643997,W,000.14,82.5,180206,5.5,W,D*1F
$GPGRS,120349.00,1,-0.1,0.0,-0.3,0.1,0.1,,,,,,,*6F
$GPGST,120349.00,,,,,,,*74
$GPMSS,61.5,17.6,319.0,200,1*52
$GPMSS,45.0,14.1,301.0,100,2*5C
$PTNLDG,62.0,17.7,319.0,200,0,4,1,0,,,*3E
$PTNLDG,45.0,14.2,301.0,100,1,4,0,0,,,*37
$PTNL,GGK,120349.00,021806,4226.0563203,N,08353.6439968,W,4,05,4.2,EHT239.169,M*6E
$GPXTE,,,,,N*3C
$PTNLTL,A,,D,INCL,,A,,D,BANK,*10
$GPXDR,A,,D,INCL,A,,D,BANK*57
$PFUGDP,6/,M3YGZM@93,933%@YZ%G3,8,YHGZG@%99YY,:,YZ,H,R,,,,*5C
$GPGGA,120351.00,4226.056359,N,08353.643980,W,2,04,2.7,273.41,M,-34.08,M,0.8,0117*7B
$GPGLL,4226.056359,N,08353.643980,W,120351.00,A,D*79
$GPVTG,260.4,T,,,000.07,N,000.12,K,D*41
$GPGSV,3,1,09,03,09,054,31,08,68,292,37,11,44,134,44,17,16,229,41*7B
$GPGSV,3,2,09,19,46,051,,26,11,323,,27,70,193,44,28,44,293,45*73
$GPGSV,3,3,09,29,16,314,,,,,,,,,,,,,*4A
$GPGSA,A,3,11,17,27,28,,,,,,,,,4.4,2.7,3.5*38
$GPZDA,120353.47,18,02,2006,00,00*6C
$GPRMC,120351,A,4226.056359,N,08353.643980,W,000.07,260.4,180206,5.5,W,D*23
$GPGRS,120351.00,1,0.0,0.0,0.0,0.0,,,,,,,,*4A
$GPGST,120351.00,,,,,,,*7D
$GPMSS,62.0,17.7,319.0,200,1*55
$GPMSS,46.0,15.4,301.0,100,2*5B
$PTNLDG,62.0,17.7,319.0,200,0,4,1,0,,,*3E
$PTNLDG,46.0,15.4,301.0,100,1,4,0,0,,,*33
$PTNL,GGK,120351.00,021806,4226.0563589,N,08353.6439800,W,4,04,4.4,EHT239.327,M*62
$GPXTE,,,,,N*3C
$PTNLTL,A,,D,INCL,,A,,D,BANK,*10
$GPXDR,A,,D,INCL,A,,D,BANK*57
$PFUGDP,6/,M3YGZG@9-,933%@YZ%G%,8,YHGZG@%9G H,:,Y9,3,R,,,,*52
$GPGGA,120353.00,4226.056390,N,08353.643973,W,2,04,2.7,273.56,M,-34.08,M,1.0,0117*7F
$GPGLL,4226.056390,N,08353.643973,W,120353.00,A,D*72
$GPVTG,42.1,T,,,000.07,N,000.12,K,D*76
$GPGSV,3,1,09,03,09,054,31,08,68,292,35,11,44,134,44,17,16,229,41*79
$GPGSV,3,2,09,19,46,051,,26,11,323,,27,70,193,45,28,44,293,44*73
$GPGSV,3,3,09,29,16,314,,,,,,,,,,,,,*4A
$GPGSA,A,3,11,17,27,28,,,,,,,,,4.4,2.7,3.5*38
$GPZDA,120355.47,18,02,2006,00,00*6A
$GPRMC,120353,A,4226.056390,N,08353.643973,W,000.07,42.1,180206,5.5,W,D*1F
$GPGRS,120353.00,1,0.0,0.0,0.0,0.0,,,,,,,,*48
$GPGST,120353.00,,,,,,,*7F
$GPMSS,62.5,17.8,319.0,200,1*5F
$GPMSS,45.5,16.7,301.0,100,2*5D
$PTNLDG,62.5,17.8,319.0,200,0,4,1,0,,,*34
$PTNLDG,45.5,16.7,301.0,100,1,4,0,0,,,*35
$PTNL,GGK,120353.00,021806,4226.0563898,N,08353.6439728,W,4,04,4.4,EHT239.478,M*65
$GPXTE,,,,,N*3C
$PTNLTL,A,,D,INCL,,A,,D,BANK,*10
$GPXDR,A,,D,INCL,A,,D,BANK*57
$PFUGDP,6/,M3YGZZ@9-,933%@YZ%G ,8,YHGZG@%9G -,:,Y9,3,R,,,,*54
$GPGGA,120355.00,4226.056403,N,08353.643968,W,2,04,2.7,273.64,M,-34.08,M,0.6,0117*78
$GPGLL,4226.056403,N,08353.643968,W,120355.00,A,D*73
$GPVTG,22.0,T,,,000.03,N,000.05,K,D*73
$GPGSV,3,1,09,03,09,054,30,08,68,292,35,11,44,134,44,17,16,229,41*78
$GPGSV,3,2,09,19,46,051,,26,11,323,,27,70,193,45,28,44,293,44*73
$GPGSV,3,3,09,29,16,314,,,,,,,,,,,,,*4A
$GPGSA,A,3,11,17,27,28,,,,,,,,,4.4,2.7,3.5*38
$GPZDA,120357.52,18,02,2006,00,00*6C
$GPRMC,120355,A,4226.056403,N,08353.643968,W,000.03,22.0,180206,5.5,W,D*1D
$GPGRS,120355.00,1,0.0,0.0,0.0,0.0,,,,,,,,*4E
$GPGST,120355.00,,,,,,,*79
$GPMSS,62.0,17.7,319.0,200,1*55
$GPMSS,46.0,16.5,301.0,100,2*59
$PTNLDG,62.0,17.7,319.0,200,0,4,1,0,,,*3E
$PTNLDG,46.0,16.5,301.0,100,1,4,0,0,,,*31
$PTNL,GGK,120355.00,021806,4226.0564028,N,08353.6439684,W,4,04,4.4,EHT239.564,M*6C
$GPXTE,,,,,N*3C
$PTNLTL,A,,D,INCL,,A,,D,BANK,*10
$GPXDR,A,,D,INCL,A,,D,BANK*57
$PFUGDP,6/,M3YGZ-@Z3,933%@YZ%9Y,8,YHGZG@%9G -,:,Y9,3,R,,,,*5C
$GPGGA,120357.00,4226.056391,N,08353.643973,W,2,04,2.7,273.72,M,-34.08,M,0.2,0117*7F
$GPGLL,4226.056391,N,08353.643973,W,120357.00,A,D*77
$GPVTG,45.4,T,,,000.09,N,000.17,K,D*7F
$GPGSV,3,1,09,03,09,054,31,08,68,292,36,11,44,134,44,17,16,229,41*7A
$GPGSV,3,2,09,19,46,051,,26,11,323,,27,70,193,45,28,44,293,44*73
$GPGSV,3,3,09,29,16,314,,,,,,,,,,,,,*4A
$GPGSA,A,3,11,17,27,28,,,,,,,,,4.4,2.7,3.5*38
$GPZDA,120359.55,18,02,2006,00,00*65
$GPRMC,120357,A,4226.056391,N,08353.643973,W,000.09,45.4,180206,5.5,W,D*16
$GPGRS,120357.00,1,0.0,0.0,0.0,0.0,,,,,,,,*4C
$GPGST,120357.00,,,,,,,*7B
$GPMSS,62.0,17.7,319.0,200,1*55
$GPMSS,45.5,16.0,301.0,100,2*5A
$PTNLDG,62.0,17.7,319.0,200,0,4,1,0,,,*3E
$PTNLDG,45.5,16.0,301.0,100,1,4,0,0,,,*32
$PTNL,GGK,120357.00,021806,4226.0563910,N,08353.6439729,W,4,04,4.4,EHT239.642,M*6A
$GPXTE,,,,,N*3C
$PTNLTL,A,,D,INCL,,A,,D,BANK,*10
$GPXDR,A,,D,INCL,A,,D,BANK*57
$PFUGDP,6/,M3YGZ @ZZ,933%@YZ%G ,8,YHGZG@%9G -,:,Y9,3,R,,,,*5B
$GPGGA,120359.00,4226.056380,N,08353.643968,W,2,04,2.7,273.76,M,-34.08,M,0.4,0117*79
$GPGLL,4226.056380,N,08353.643968,W,120359.00,A,D*73
$GPVTG,78.2,T,,,000.04,N,000.07,K,D*7B
$GPGSV,3,1,09,03,09,054,33,08,68,292,36,11,44,134,45,17,16,229,41*79
$GPGSV,3,2,09,19,45,051,,26,11,323,,27,70,193,44,28,44,293,44*71
$GPGSV,3,3,09,29,16,314,,,,,,,,,,,,,*4A
$GPGSA,A,3,11,17,27,28,,,,,,,,,4.4,2.7,3.5*38
$GPZDA,120401.57,18,02,2006,00,00*6D
$GPRMC,120359,A,4226.056380,N,08353.643968,W,000.04,78.2,180206,5.5,W,D*17
$GPGRS,120359.00,1,0.0,0.0,0.0,0.0,,,,,,,,*42
$GPGST,120359.00,,,,,,,*75
$GPMSS,62.0,17.9,319.0,200,1*5B
$GPMSS,46.0,16.2,301.0,100,2*5E
$PTNLDG,62.0,18.0,319.0,200,0,4,1,0,,,*36
$PTNLDG,46.0,16.0,301.0,100,1,4,0,0,,,*34
$PTNL,GGK,120359.00,021806,4226.0563799,N,08353.6439677,W,4,04,4.4,EHT239.681,M*6E
$GPXTE,,,,,N*3C
$PTNLTL,A,,D,INCL,,A,,D,BANK,*10
$GPXDR,A,,D,INCL,A,,D,BANK*57
$PFUGDP,6/,M3Y9YM@Z-,933%@YZ%GH,8,YHGZG@%9G -,:,Y9,3,R,,,,*52
$GPGGA,120401.00,4226.056323,N,08353.644006,W,2,05,2.7,273.72,M,-34.08,M,0.0,0117*7D
$GPGLL,4226.056323,N,08353.644006,W,120401.00,A,D*76
$GPVTG,19.2,T,,,000.17,N,000.32,K,D*78
$GPGSV,3,1,09,03,09,054,33,08,68,292,35,11,44,134,44,17,16,229,41*7B
$GPGSV,3,2,09,19,45,051,,26,11,323,,27,70,193,45,28,44,293,43*77
$GPGSV,3,3,09,29,16,314,,,,,,,,,,,,,*4A
$GPGSA,A,3,08,11,17,27,28,,,,,,,,4.2,2.7,3.3*30
$GPZDA,120403.59,18,02,2006,00,00*61
$GPRMC,120401,A,4226.056323,N,08353.644006,W,000.17,19.2,180206,5.5,W,D*17
$GPGRS,120401.00,1,-0.1,0.0,-0.3,0.1,0.1,,,,,,,*64
$GPGST,120401.00,,,,,,,*7F
$GPMSS,62.0,17.9,319.0,200,1*5B
$GPMSS,46.0,16.2,301.0,100,2*5E
$PTNLDG,62.0,17.9,319.0,200,0,4,1,0,,,*30
$PTNLDG,46.0,16.2,301.0,100,1,4,0,0,,,*36
$PTNL,GGK,120401.00,021806,4226.0563233,N,08353.6440063,W,4,05,4.2,EHT239.643,M*65
$GPXTE,,,,,N*3C
$PTNLTL,A,,D,INCL,,A,,D,BANK,*10
$GPXDR,A,,D,INCL,A,,D,BANK*57
$PFUGDP,6/,M3Y9YG@Z ,933%@YZ%G3,8,YHGZG@%99YM,:,YZ,H,R,,,,*57
$GPGGA,120403.00,4226.056331,N,08353.643996,W,2,04,2.7,273.76,M,-34.08,M,1.4,0117*7B
$GPGLL,4226.056331,N,08353.643996,W,120403.00,A,D*70
$GPVTG,154.6,T,,,000.18,N,000.33,K,D*4A
$GPGSV,3,1,09,03,09,054,34,08,68,292,35,11,44,134,44,17,16,229,42*7F
$GPGSV,3,2,09,19,45,051,,26,11,323,,27,70,193,45,28,44,293,43*77
$GPGSV,3,3,09,29,16,314,,,,,,,,,,,,,*4A
$GPGSA,A,3,11,17,27,28,,,,,,,,,4.4,2.7,3.5*38
$GPZDA,120405.66,18,02,2006,00,00*6B
$GPRMC,120403,A,4226.056331,N,08353.643996,W,000.18,154.6,180206,5.5,W,D*22
$GPGRS,120403.00,1,0.0,0.0,0.0,0.0,,,,,,,,*4A
$GPGST,120403.00,,,,,,,*7D
$GPMSS,62.0,17.9,319.0,200,1*5B
$GPMSS,46.0,16.4,301.0,100,2*58
$PTNLDG,62.0,18.0,319.0,200,0,4,1,0,,,*36
$PTNLDG,45.5,16.4,301.0,100,1,4,0,0,,,*36
$PTNL,GGK,120403.00,021806,4226.0563311,N,08353.6439965,W,4,04,4.4,EHT239.686,M*69
$GPXTE,,,,,N*3C
$PTNLTL,A,,D,INCL,,A,,D,BANK,*10
$GPXDR,A,,D,INCL,A,,D,BANK*57
$PFUGDP,6/,M3Y9YZ@%%,933%@YZ%GG,8,YHGZG@%99YY,:,Y9,3,R,,,,*56
$GPGGA,120405.00,4226.056353,N,08353.643960,W,2,04,2.7,273.68,M,-34.08,M,1.0,0117*7B
$GPGLL,4226.056353,N,08353.643960,W,120405.00,A,D*7B
$GPVTG,121.1,T,,,000.08,N,000.14,K,D*4B
$GPGSV,3,1,09,03,09,054,34,08,68,292,35,11,44,134,44,17,16,229,41*7C
$GPGSV,3,2,09,19,45,051,,26,11,323,,27,70,193,44,28,44,293,43*76
$GPGSV,3,3,09,29,16,314,,,,,,,,,,,,,*4A
$GPGSA,A,3,11,17,27,28,,,,,,,,,4.4,2.7,3.5*38
$GPZDA,120407.67,18,02,2006,00,00*68
$GPRMC,120405,A,4226.056353,N,08353.643960,W,000.08,121.1,180206,5.5,W,D*2D
$GPGRS,120405.00,1,0.0,0.0,0.0,0.0,,,,,,,,*4C
$GPGST,120405.00,,,,,,,*7B
$GPMSS,62.0,17.9,319.0,200,1*5B
$GPMSS,46.5,17.2,301.0,100,2*5A
$PTNLDG,62.0,17.9,319.0,200,0,4,1,0,,,*30
$PTNLDG,46.5,17.2,301.0,100,1,4,0,0,,,*32
$PTNL,GGK,120405.00,021806,4226.0563535,N,08353.6439599,W,4,04,4.4,EHT239.606,M*68
$GPXTE,,,,,N*3C
$PTNLTL,A,,D,INCL,,A,,D,BANK,*10
$GPXDR,A,,D,INCL,A,,D,BANK*57
$PFUGDP,6/,M3Y9Y-@%-,933%@YZ%GZ,8,YHGZG@%9G %,:,Y9,3,R,,,,*5B
$GPGGA,120407.00,4226.056387,N,08353.643960,W,2,04,2.7,273.69,M,-34.08,M,0.6,0117*76
$GPGLL,4226.056387,N,08353.643960,W,120407.00,A,D*70
$GPVTG,15.4,T,,,000.07,N,000.14,K,D*77
$GPGSV,3,1,09,03,09,054,32,08,68,292,33,11,44,134,44,17,16,229,41*7C
$GPGSV,3,2,09,19,45,051,,26,11,322,,27,70,193,45,28,44,293,42*77
$GPGSV,3,3,09,29,16,314,,,,,,,,,,,,,*4A
$GPGSA,A,3,11,17,27,28,,,,,,,,,4.4,2.7,3.5*38
$GPZDA,120409.72,18,02,2006,00,00*62
$GPRMC,120407,A,4226.056387,N,08353.643960,W,000.07,15.4,180206,5.5,W,D*1A
$GPGRS,120407.00,1,0.0,0.0,0.0,0.0,,,,,,,,*4E
$GPGST,120407.00,,,,,,,*79
$GPMSS,62.0,17.8,319.0,200,1*5A
$GPMSS,46.0,17.4,301.0,100,2*59
$PTNLDG,62.0,17.8,319.0,200,0,4,1,0,,,*31
$PTNLDG,46.0,17.4,301.0,100,1,4,0,0,,,*31
$PTNL,GGK,120407.00,021806,4226.0563866,N,08353.6439604,W,4,04,4.4,EHT239.616,M*67
$GPXTE,,,,,N*3C
$PTNLTL,A,,D,INCL,,A,,D,BANK,*10
$GPXDR,A,,D,INCL,A,,D,BANK*57
$PFUGDP,6/,M3Y9Y @-3,933%@YZ%G ,8,YHGZG@%9G %,:,Y9,3,R,,,,*5D
$GPGGA,120409.00,4226.056371,N,08353.643967,W,2,04,2.7,273.79,M,-34.08,M,0.8,0117*79
$GPGLL,4226.056371,N,08353.643967,W,120409.00,A,D*70
$GPVTG,176.1,T,,,000.15,N,000.28,K,D*4A
$GPGSV,3,1,09,03,09,054,33,08,68,292,33,11,44,134,43,17,16,229,42*79
$GPGSV,3,2,09,19,45,051,,26,11,322,,27,70,193,45,28,44,293,41*74
$GPGSV,3,3,09,29,16,314,,,,,,,,,,,,,*4A
$GPGSA,A,3,11,17,27,28,,,,,,,,,4.4,2.7,3.5*38
